Route,Stop Sequence,Stop Name,Stop Name Short,Latitude,Longitude
1,1,백석농공단지, 백석농공,36.82571406,127.109668
1,2,화성조명, 화성조명,36.82895536,127.1072966
1,3,한들문화센터입구, 한들센터,36.8307417,127.1064441
1,4,STS,S   T   S,36.83101965,127.1091264
1,5,제네시스, 제네시스 ,36.83104252,127.1124419
1,6,브라운스톤아파트,브라운스톤,36.83003128,127.1142824
1,7,벽산블루밍아파트,벽산블루밍,36.82471461,127.1123474
1,8,종합운동장,종합운동장,36.8204819,127.1110299
1,9,천안시청시의회,시청시의회,36.81592336,127.1126769
1,10,천안시청, 천안시청 ,36.81607966,127.1145045
1,11,백석호반1차아파트,백석호반 A,36.81835357,127.1189338
1,12,백석호반2차아파트,백석호반 A,36.81925199,127.1199854
1,13,백석초등학교, 백석초교 ,36.82076373,127.1207639
1,14,백석종합상가, 종합상가 ,36.82225226,127.1249236
1,15,백석현대아파트,백석현대 A,36.82240578,127.1257107
1,16,백석사거리,백석사거리,36.81895517,127.1322416
1,17,가구웨딩특화거리, 가구거리,36.81848565,127.1396809
1,18,우방아이유셀아파트,아이유셀,36.818555,127.150392
1,19,종합터미널,종합터미널,36.8187797,127.155972
1,20,신부경남아파트,신부경남 A,36.81552076,127.1581206
1,21,천안중학교,천안중학교,36.81130964,127.1582674
1,22,교보생명, 교보생명,36.80798399,127.1584761
1,23,교보사거리,교보사거리,36.80552772,127.1586705
1,24,원성극동아파트,원성극동 A,36.80285964,127.1589074
1,25,천안여중입구,천안여중앞,36.80049222,127.1590016
1,26,우성VIP 아파트,우성 VIP A,36.7985872,127.1564345
1,27,남부오거리,남부오거리,36.7985139,127.1516921
1,28,일봉초등학교, 일봉초교,36.79878796,127.1399841
1,29,다가동신성아파트,다가신성 A,36.79883462,127.1362324
1,30,충무병원, 충무병원,36.7982696,127.1324991
1,31,쌍용동 이마트,이마트쌍용,36.79631584,127.1287697
1,32,이화여성병원, 이화병원,36.79425133,127.1261474
1,33,쌍용역예일병원계룡아파트,쌍  용  역,36.79307799,127.1224607
1,34,쌍용고입구,쌍용고입구,36.79054961,127.1167541
1,35,월봉대우아파트,월봉대우 A,36.79516463,127.1147507
1,36,월봉벽산아파트,월봉벽산 A,36.79859296,127.1151341
1,37,불당 한성아파트,불당한성 A,36.80177419,127.114517
1,38,월봉고등학교, 월봉고교 ,36.80215674,127.1093388
1,39,갤러리아백화점, 갤러리아 ,36.80146069,127.1045475
1,40,불당시티프라디움3차,프라디움,36.7971352,127.100265
1,41,아산패션1광장,패션 1광장,36.79635,127.10214
1,42,충남북부상공회의소,상공회의소,36.79809,127.10926
1,43,천안교육지원청,천안교육청,36.8004692,127.1115156
1,44,불당한성아파트,불당한성A,36.80281799,127.1124357
1,45,불당동행정복지센터,불당동,36.8050216,127.113191
1,46,불당동일하이빌,불당동일 A,36.80799925,127.1140372
1,47,천안시청 서북구보건소, 천안시청,36.81392798,127.1158357
1,48,천안시청, 천안시청 ,36.81625965,127.1145991
1,1,천안시청,천안시청,36.81601921,127.1148099
1,2,천안시청 서북구보건소, 천안시청,36.81408213,127.115595
1,3,불당동일하이빌,불당동일 A,36.80778699,127.1137493
1,4,불당대동다숲,대동다숲 A,36.80505757,127.1129314
1,5,불당한성아파트,불당한성A,36.80304803,127.1122592
1,6,천안교육지원청,천안교육청,36.80054965,127.1111791
1,7,충남북부상공회의소,상공회의소,36.7978613,127.1086324
1,8,패션1광장,패션 1광장,36.79659,127.10219
1,9,펜타포트, 펜타포트 ,36.79744461,127.1008124
1,10,서당골,서  당  골,36.80050133,127.1006674
1,11,갤러리아백화점, 갤러리아 ,36.80115796,127.1042941
1,12,불당동문화카페거리, 카페거리,36.80163461,127.1067391
1,13,월봉중학교,월봉중학교,36.80183965,127.1110957
1,14,한화꿈에그린아파트,꿈에그린A,36.80162298,127.1137791
1,15,쌍용도서관,쌍용도서관,36.80043899,127.1151394
1,16,월봉벽산아파트,월봉벽산 A,36.79817587,127.1148467
1,17,월봉5차현대아파트,월봉현대 A,36.79577635,127.1146363
1,18,쌍용고입구,쌍용고입구,36.79023545,127.1169972
1,19,삼일원앙아파트,삼일원앙 A,36.79007296,127.1198207
1,20,쌍용역해누리아이파크,쌍  용  역,36.79305796,127.1234207
1,21,쌍용고가교,쌍용고가교,36.79409963,127.1263374
1,22,쌍용동 이마트,이마트쌍용,36.79631298,127.1290624
1,23,충무병원, 충무병원,36.79822667,127.1336735
1,24,다가동신성아파트YWCA,다가신성 A,36.79855297,127.1367774
1,25,일봉초등학교, 일봉초교 ,36.79848462,127.1403841
1,26,남부오거리,남부오거리,36.7982139,127.1517372
1,27,우성VIP 아파트,우성 VIP A,36.79842431,127.1562394
1,28,천안여중입구,천안여중,36.7999936,127.1593035
1,29,원성극동아파트,원성극동 A,36.80257013,127.1590813
1,30,교보사거리,교보사거리,36.80472992,127.1589439
1,31,교보생명,교보생명,36.80735799,127.1587324
1,32,중앙고등학교,중앙고교,36.81141632,127.1584774
1,33,신부경남아파트,신부경남A,36.81559628,127.1583541
1,34,고속터미널,고속터미널,36.81895798,127.1545407
1,35,가구웨딩특화거리, 가구거리,36.81864973,127.1390334
1,36,백석사거리,백석사거리,36.81903497,127.1328358
1,37,백석종합상가, 종합상가 ,36.82208647,127.1245917
1,38,백석초등학교, 백석초교 ,36.8205491,127.1200824
1,39,주공그린빌3차아파트,주공그린빌,36.819102,127.1196895
1,40,백석11단지,백석11단지,36.81876387,127.1179086
1,41,천안시청, 천안시청 ,36.81625965,127.1145991
1,42,천안시청시의회,시청시의회,36.81569869,127.1123449
1,43,종합운동장,종합운동장,36.81851795,127.1107407
1,44,벽산블루밍아파트,벽산블루밍,36.82620132,127.1133074
1,45,한국더첼,한국더첼,36.8307286,127.1139845
1,46,화이트스톤,화이트스톤,36.83114632,127.1088757
1,47,한들문화센터입구, 한들센터,36.8305881,127.1063327
1,48,영진기계, 영진기계,36.82896224,127.1070762
1,49,백석농공단지, 백석농공,36.8245896,127.1098373
3,1,고속터미널,고속터미널,36.81895798,127.1545407
3,2,봉정사거리,봉정사거리,36.8192104,127.1430792
3,3,성정대우목화,대우목화 A,36.82170799,127.1436891
3,4,천안세관,천안세관,36.8232863,127.1441131
3,5,서부19길입구,서부19길,36.8242063,127.1443224
3,6,신라스테이(인쇄창),인  쇄  창,36.82553464,127.1433407
3,7,성정공원,성정공원,36.82834755,127.1412992
3,8,두정아크로텔,아크로텔,36.8317791,127.141721
3,9,두정대림아파트,두정대림 A,36.8336754,127.1407063
3,10,두정도서관,두정도서관,36.83388966,127.1354357
3,11,두정고등학교, 두정고교,36.8344363,127.1336441
3,12,두정한성아파트,두정한성 A,36.83641912,127.1337244
3,13,성성레이크타운2차푸르지오아파트,성성레이크타운2차푸르지오아파트,36.83930627,127.1333941
3,14,성성레이크타운3차푸르지오A,성성레이크타운3차푸르,36.8394081,127.1270404
3,15,이마트 서북점,이  마  트,36.8391046,127.1220241
3,16,두정대림2차아파트,대 림 2차A,36.83678452,127.1283121
3,17,계룡리슈빌,계룡리슈빌,36.83257179,127.1233255
3,18,백석푸르지오아파트,푸르지오A,36.8307291,127.1214497
3,19,백석이수아파트입구,백석이수 A,36.8301348,127.1163021
3,20,브라운스톤아파트,브라운스톤,36.83003128,127.1142824
3,21,벽산블루밍아파트,벽산블루밍,36.82471461,127.1123474
3,22,종합운동장,종합운동장,36.82260404,127.1133192
3,23,백석11단지,백석11단지,36.82000963,127.1173524
3,24,천안시청, 천안시청 ,36.81625965,127.1145991
3,25,천안시청시의회,시청시의회,36.81569869,127.1123449
3,26,시청앞사거리,시청사거리,36.816008,127.1085814
3,27,불당신도시,불당신도시,36.8168944,127.1040113
3,28,호반센트로포레,호반센트로,36.8173127,127.1021233
3,29,호반센트로포레,호반센트로,36.8184214,127.1010165
3,30,불당이안아파트,불당이안A,36.820672,127.1017224
3,31,불당리더힐스,리더힐스,36.82301868,127.1026218
3,32,지웰푸르지오정문,푸르지오,36.8222736,127.105975
3,33,지웰푸르지오후문,푸르지오,36.8212872,127.107533
3,34,LH천년나무7단지,천년나무7,36.8171409,127.1063153
3,35,불당지웰더샵,지웰더샵,36.8137706,127.1053179
3,36,호반써밋플레이스,호반써밋,36.8110122,127.104526
3,37,천안불당고,천안불당고,36.8090584,127.1038858
3,38,호반더퍼스트,더퍼스트,36.8080367,127.1043283
3,39,불당아이파크후문,아이파크,36.8073102,127.1078712
3,40,불당대동아파트108동앞,불당대동 A,36.80647705,127.1120144
3,41,불당대원아파트,불당대원 A,36.80478071,127.1167191
3,42,뜨란채아파트 후문,뜨란채후문,36.80666899,127.1187852
3,43,뜨란채아파트,뜨 란 채 A,36.80501442,127.1206981
3,44,쌍용중학교,쌍용중학교,36.8038458,127.1211998
3,45,라이프아파트,라 이 프 A,36.80222234,127.1222077
3,46,주공7단지,주공 7단지,36.80182353,127.1247312
3,47,천안컨벤션센터,컨벤션센터,36.80440961,127.1277541
3,48,일성아파트,일   성  A,36.8076207,127.1299445
3,49,천안고등학교, 천안고교,36.80708686,127.1355617
3,50,천고사거리,천고사거리,36.80729344,127.1401513
3,51,공작아파트 입구,공작A 입구,36.8095127,127.1407269
3,52,천안역 서부광장,천안역서부,36.8095435,127.1450086
3,1,천안역 서부광장,천안역서부,36.8095435,127.1450086
3,2,공작아파트 입구,공작A 입구,36.80882577,127.1403088
3,3,천고사거리,천고사거리,36.8070723,127.1392308
3,4,천안고등학교, 천안고교,36.80727629,127.1353874
3,5,일성아파트,일   성  A,36.80777398,127.1302187
3,6,시영1차아파트, 시영1차A ,36.8073613,127.1282357
3,7,천안컨벤션센터,컨벤션센터,36.8046713,127.1276324
3,8,주공7단지,주공 7단지,36.80196688,127.1246175
3,9,라이프아파트,라 이 프 A,36.80242966,127.1218241
3,10,주공9단지,주공 9단지,36.80415237,127.1212552
3,11,주공9단지,주공 9단지,36.80497463,127.1208441
3,12,파크밸리동일하이빌,파크밸리,36.8068854,127.1186344
3,13,불당호반아파트,불당호반 A,36.80550394,127.1161022
3,14,불당동일하이빌3단지,불당동일 A,36.80681537,127.1115229
3,15,불당아이파크후문,아이파크,36.8074062,127.1083023
3,16,호반더퍼스트,더퍼스트,36.8081375,127.1045271
3,17,천안불당고,천안불당고,36.810013,127.104371
3,18,불당지웰시티5블럭,지웰시티5,36.812143,127.105014
3,19,불당지웰시티4블럭,지웰시티4,36.815244,127.105975
3,20,LH천년나무7단지,천년나무7,36.816962,127.106479
3,21,파크푸르지오2단지,푸르지오2,36.8197451,127.1073671
3,22,불당금호어울림,금호어울림,36.82234,127.1069782
3,23,LH행복주택,LH행복,36.822947,127.103785
3,24,불당리더힐스,리더힐스,36.82201384,127.1015811
3,25,불당이안아파트,불당이안,36.8198805,127.1011839
3,26,호반센트로포레,호반센트로,36.8182129,127.1006924
3,27,린스트라우스,린스트라우,36.8170538,127.1015472
3,28,불당신도시,불당신도시,36.8166013,127.103968
3,29,시청앞사거리,시청사거리,36.815664,127.1085258
3,30,천안시청시의회,시청시의회,36.81592336,127.1126769
3,31,천안시청, 천안시청 ,36.81607966,127.1145045
3,32,백석11단지,백석11단지,36.82016488,127.117591
3,33,벽산블루밍아파트,벽산블루밍,36.82559499,127.1160772
3,34,백석이수아파트,백석이수 A,36.8278781,127.1168346
3,35,백석푸르지오아파트,푸르지오A,36.8306031,127.1214952
3,36,백석더샵아파트,백석더샵,36.83092964,127.1236174
3,37,백석아이파크, 아이파크 ,36.83300961,127.1236174
3,38,"리슈빌,아이파크", 리슈빌 A ,36.83418129,127.1231758
3,39,백석중흥아파트,백석중흥 A,36.83443465,127.1218207
3,40,이마트 서북점,이  마  트,36.8390743,127.1243952
3,41,두정대림2차아파트,대 림 2차A,36.83901966,127.1292641
3,42,천안시장애인종합복지관,종합복지관,36.83902158,127.1325808
3,43,두정우성아파트,두정우성 A,36.83636116,127.1334788
3,44,두정도서관,두정도서관,36.8337435,127.1355327
3,45,펜타폴리스 2차,펜타폴리스,36.8334685,127.1405688
3,46,두정아크로텔,아크로텔,36.8317017,127.1414691
3,47,성정공원,성정공원,36.82836044,127.1411437
3,48,천안고용센터, 고용센터,36.82538294,127.1420891
3,49,서부19길입구,서부19길,36.8244937,127.1441809
3,50,천안세관,천안세관,36.8233082,127.1439
3,51,대우목화아파트,대우목화A,36.82148303,127.1434625
3,52,봉정사거리,봉정사거리,36.8198188,127.1430595
3,53,우방아이유셀아파트,아이유셀,36.818555,127.150392
3,54,종합터미널,종합터미널,36.81880476,127.1562637
10,1,천안시청, 천안시청 ,36.81625965,127.1145991
10,2,천안시청시의회,시청시의회,36.81569869,127.1123449
10,3,불당상업지구입구,불당상업지구입구,36.81365,127.10887
10,4,서울대정병원,대정병원,36.81176,127.10828
10,5,불당현대아이파크,불당현대아이파크,36.80842,127.10726
10,6,마디손병원,마디손병원,36.8068961,127.1066872
10,7,와이시티,와이시티,36.79789,127.10601
10,8,패션2광장,패션2광장,36.79334,127.10718
10,9,충남북부상공회의소,상공회의소,36.79809,127.10926
10,10,천안교육지원청,천안교육청,36.8004692,127.1115156
10,11,한화꿈에그린아파트,꿈에그린A,36.80162298,127.1137791
10,12,월봉청솔아파트,월봉청솔 A,36.80130127,127.1162874
10,13,용암마을, 용암마을,36.80091465,127.1194491
10,14,쌍용한라동백아파트,한라동백A,36.80018299,127.1240358
10,15,쌍용동사거리,쌍용사거리,36.7993939,127.1276448
10,16,충무병원, 충무병원,36.79822667,127.1336735
10,17,다가동신성아파트YWCA,다가신성 A,36.79855297,127.1367774
10,18,일봉초등학교, 일봉초교 ,36.79848462,127.1403841
10,19,남부오거리,남부오거리,36.7982139,127.1517372
10,20,농협원성점,농협원성점,36.79967502,127.1535368
10,21,청과시장,청과시장,36.80328294,127.1528607
10,22,버들육거리,버들육거리,36.8054539,127.1524533
10,23,동남구보건소,동남보건소,36.8083113,127.1505244
10,24,천안역,천  안  역,36.80911797,127.1488424
10,25,삼도상가, 삼도상가,36.8116185,127.148923
10,26,복자여자중고등학교,복자여중고,36.815312,127.1502101
10,27,방죽안오거리,방 죽 안 5,36.8175776,127.1514936
10,28,종합터미널,종합터미널,36.8187797,127.155972
10,29,대림한숲아파트,대림한숲 A,36.8193751,127.1595809
10,30,대림한내아파트,대림한내 A,36.82490299,127.1572557
10,31,역말오거리,역말오거리,36.82615796,127.1530874
10,32,이안아파트 코아루아파트,이안아파트,36.82901129,127.1525124
10,33,두정역푸르지오,푸르지오 A,36.83230796,127.1508891
10,34,두정역,두  정  역,36.83304298,127.1473341
10,35,두정대우1차아파트,두정대우 A,36.83345631,127.1443291
10,36,두정대림아파트,두정대림 A,36.8336754,127.1407063
10,37,두정도서관,두정도서관,36.83388966,127.1354357
10,38,두정고등학교, 두정고교 ,36.83394293,127.1325424
10,39,두정대우5차아파트,대우 5차 A,36.83410081,127.1290377
10,40,두정세광아파트,두정세광 A,36.82930045,127.127192
10,41,두정부경아파트,두정부경 A,36.82692875,127.1271321
10,42,한방병원, 한방병원,36.82446964,127.1260441
10,43,백석그린빌아파트, 그린빌 A,36.82342963,127.1210407
10,44,백석11단지,백석11단지,36.82000963,127.1173524
10,45,천안시청,천안시청,36.8161515,127.1161017
10,1,천안시청, 천안시청 ,36.81607966,127.1145045
10,2,백석11단지,백석11단지,36.82016488,127.117591
10,3,백석그린빌아파트, 그린빌 A,36.82320628,127.1211974
10,4,두정부경아파트,두정부경 A,36.82681797,127.1273941
10,5,두정세광아파트,두정세광 A,36.82923299,127.1274424
10,6,두정대우5차아파트,대우 5차 A,36.83384512,127.1291587
10,7,두정도서관,두정도서관,36.8337435,127.1355327
10,8,펜타폴리스 2차,펜타폴리스,36.8334685,127.1405688
10,9,두정대우1차아파트,두정대우 A,36.83324168,127.1442197
10,10,두정역,두  정  역,36.83266484,127.1479053
10,11,두정역입구,두정역입구,36.83139281,127.1518104
10,12,이안아파트 코아루아파트,이안아파트,36.82884583,127.1522152
10,13,역말오거리,역말오거리,36.82691798,127.1527124
10,14,대림한내아파트,대림한내 A,36.82465294,127.1571357
10,15,대림한숲아파트,대림한숲 A,36.81993963,127.1597741
10,16,종합터미널,종합터미널,36.8190148,127.1565574
10,17,방죽안오거리,방 죽 안 5,36.817435,127.1511525
10,18,복자여자중고등학교,복자여중고,36.815121,127.1499161
10,19,삼도상가, 삼도상가,36.8120581,127.1488145
10,20,천안역,천  안  역,36.80882941,127.1490063
10,21,동남구보건소,동남구보건,36.80731404,127.1515393
10,22,버들육거리,버들육거리,36.8055523,127.1522197
10,23,청과시장, 청과시장,36.80334529,127.1526817
10,24,농협원성점,농협원성점,36.79952316,127.1533738
10,25,남부오거리,남부오거리,36.7985139,127.1516921
10,26,일봉초등학교, 일봉초교,36.79878796,127.1399841
10,27,다가동신성아파트,다가신성 A,36.79883462,127.1362324
10,28,충무병원, 충무병원,36.7982696,127.1324991
10,29,쌍용동사거리,쌍용사거리,36.7998745,127.1270988
10,30,쌍용초등학교,쌍용초교,36.80061462,127.1229641
10,31,용암마을, 용암마을,36.80105907,127.1200158
10,32,불당 한성아파트,불당한성 A,36.80177419,127.114517
10,33,천안교육지원청,천안교육청,36.80054965,127.1111791
10,34,충남북부상공회의소,상공회의소,36.7978613,127.1086324
10,35,패션2광장,패션2광장,36.79388,127.1074
10,36,와이시티,와이시티,36.79819,127.10632
10,37,불당현대아이파크,불당현대아이파크,36.80697,127.10722
10,38,불당상업지구입구,불당지구,36.81182,127.10861
10,39,천안시청시의회,시청시의회,36.81592336,127.1126769
10,40,천안시청,천안시청,36.8163709,127.1128435
11,1,두정우성아파트,두정우성 A,36.83636116,127.1334788
11,2,천안고용노동지청,고용노동청,36.8332067,127.1333439
11,3,늘푸른극동아파트,늘푸른극동,36.82980669,127.1330814
11,4,6단지후문,6단지 후문,36.82598924,127.1357766
11,5,롯데마트, 성정롯데,36.82562348,127.1393042
11,6,광제산부인과,광제산부인,36.82431443,127.140519
11,7,천안서초등학교,천안서초교,36.8216561,127.1399098
11,8,"성정2동행정복지센터,건강생활지원센터",성정2동,36.8196834,127.139405
11,9,가구웨딩특화거리, 가구거리,36.81848565,127.1396809
11,10,성정1동행정복지센터,성 정 1 동,36.81804075,127.1426022
11,11,성정초등학교, 성정초교,36.81538944,127.1419424
11,12,성정사거리,성정사거리,36.8126215,127.1412442
11,13,천안역 서부광장,천안역서부,36.8095435,127.1450086
11,14,공작아파트 입구,공작A 입구,36.80882577,127.1403088
11,15,봉명동행정복지센터,봉명동주민,36.80626519,127.1397118
11,16,순천향병원,순천향병원,36.8033077,127.1389912
11,17,농협 봉명동지점,농협봉명동,36.80251918,127.141375
11,18,일봉동행정복지센터,일봉동주민,36.80103683,127.1426352
11,19,선영새마을금고,새마을금고,36.79946803,127.1426927
11,20,남산축협,남산축협,36.7992067,127.1521362
11,21,중앙시장, 중앙시장,36.8010882,127.1506877
11,22,오룡우체국,오룡우체국,36.80447711,127.1501978
11,23,동남구청, 동남구청,36.80710758,127.1499407
11,24,천안역,천  안  역,36.80911797,127.1488424
11,25,삼도상가, 삼도상가,36.8116185,127.148923
11,26,복자여자중고등학교,복자여중고,36.815312,127.1502101
11,27,방죽안오거리,방 죽 안 5,36.8175776,127.1514936
11,28,종합터미널,종합터미널,36.8187797,127.155972
11,29,대림한숲아파트,대림한숲 A,36.8193751,127.1595809
11,30,옹골부락, 옹골부락 ,36.8293063,127.1655424
11,31,단국대 삼거리,단대삼거리,36.8305713,127.1640326
11,32,단국대학교,단국대학교,36.83519294,127.1689097
11,33,단국대입구,단국대입구,36.832982,127.166025
11,34,단국대 삼거리,단대삼거리,36.83082139,127.1622381
11,35,북일고북일여고,북일고여고,36.8279168,127.1578173
11,36,단대로,단  대  로,36.82645288,127.1554165
11,37,역말오거리,역말오거리,36.82615796,127.1530874
11,38,이안아파트 코아루아파트,이안아파트,36.82901129,127.1525124
11,39,두정역푸르지오,푸르지오 A,36.83230796,127.1508891
11,40,두정역,두  정  역,36.83304298,127.1473341
11,41,한성3차아파트,한성 3차 A,36.83488796,127.1457141
11,42,두정우남아파트,두정우남 A,36.83818848,127.1457463
11,1,두정우남아파트,두정우남 A,36.83809797,127.1455407
11,2,주공8단지아파트,주공 8단지,36.83511835,127.1454581
11,3,두정역,두  정  역,36.83266484,127.1479053
11,4,두정역입구,두정역입구,36.83139281,127.1518104
11,5,이안아파트 코아루아파트,이안아파트,36.82884583,127.1522152
11,6,힐스테이트,힐스테이트,36.8263588,127.1556114
11,7,북일고북일여고,북일고여고,36.8285241,127.158964
11,8,단국대 삼거리,단대삼거리,36.8307433,127.1623408
11,9,단국대학교,단국대학교,36.83519294,127.1689097
11,10,단국대입구,단국대입구,36.832982,127.166025
11,11,단국대 삼거리,단대삼거리,36.830499,127.1639488
11,12,옹골부락,옹골부락,36.82866701,127.1660049
11,13,도솔광장,도솔광장,36.8224033,127.162808
11,14,대림한숲아파트,대림한숲 A,36.81993963,127.1597741
11,15,종합터미널,종합터미널,36.8190148,127.1565574
11,16,방죽안오거리,방 죽 안 5,36.817435,127.1511525
11,17,복자여자중고등학교,복자여중고,36.815121,127.1499161
11,18,삼도상가, 삼도상가,36.8120581,127.1488145
11,19,천안역 동부광장,천안역동부,36.8083388,127.147642
11,20,온양나드리,온양나드리,36.8033957,127.1459932
11,21,남산중앙시장,중앙시장,36.8005047,127.1487406
11,22,남산축협, 남산축협,36.79921013,127.1515712
11,23,남부오거리,남부오거리,36.7985139,127.1516921
11,24,선영새마을금고,새마을금고,36.79934011,127.1429046
11,25,일봉동주민센터,일봉동주민,36.8010387,127.1427846
11,26,농협 봉명동지점,농협봉명동,36.80266795,127.1411457
11,27,순천향병원,순천향병원,36.80334963,127.1392157
11,28,천고사거리,천고사거리,36.80729344,127.1401513
11,29,공작아파트 입구,공작A 입구,36.8095127,127.1407269
11,30,천안역 서부광장,천안역서부,36.8096067,127.1450476
11,31,성정사거리,성정사거리,36.8129921,127.1415788
11,32,성정초등학교, 성정초교,36.81542798,127.1421407
11,33,성정1동행정복지센터,성 정 1 동,36.81729464,127.1425958
11,34,"성정2동행정복지센터,건강생활지원센터",성정2동,36.81945838,127.1394412
11,35,천안서초등학교,천안서초교,36.82112413,127.1398709
11,36,광제산부인과,광제산부인,36.82439687,127.1407059
11,37,성정동롯데마트,성정롯데,36.8256817,127.1402805
11,38,두정 하이마트, 하이마트,36.82648794,127.1344074
11,39,늘푸른극동아파트,늘푸른극동,36.82833528,127.1332688
11,40,천안우체국,천안우체국,36.83084794,127.1333791
11,41,두정고등학교, 두정고교,36.8344363,127.1336441
11,42,두정한성아파트,두정한성 A,36.83641912,127.1337244
12,1,방아다리공원,방아다리,36.79301183,127.1170096
12,2,쌍용역(종합터미널방면),쌍용역,36.79415,127.121816
12,3,나사렛대학교,나사렛대,36.79542962,127.1178157
12,4,쌍용동맘마마트,맘마마트,36.79883455,127.118248
12,5,용암마을, 용암마을,36.80091465,127.1194491
12,6,쌍용한라동백아파트,한라동백A,36.80018299,127.1240358
12,7,쌍용동사거리,쌍용사거리,36.7993939,127.1276448
12,8,쌍용패션거리, 패션거리,36.80244569,127.1319201
12,9,천안여상입구, 여상입구,36.80492959,127.1323538
12,10,계광중학교,계광중학교,36.80808965,127.1329274
12,11,대우5차아파트,대우 5차 A,36.8110063,127.1336858
12,12,성정시장(주공5단지),성정시장,36.81364577,127.1391309
12,13,성정초등학교, 성정초교,36.81542798,127.1421407
12,14,성정1동행정복지센터,성 정 1 동,36.81729464,127.1425958
12,15,우방아이유셀아파트,아이유셀,36.818555,127.150392
12,16,종합터미널,종합터미널,36.8187797,127.155972
12,17,신부경남아파트,신부경남 A,36.81552076,127.1581206
12,18,천안중학교,천안중학교,36.81130964,127.1582674
12,19,교보생명, 교보생명,36.80798399,127.1584761
12,20,교보사거리,교보사거리,36.80552772,127.1586705
12,21,원성극동아파트,원성극동 A,36.80285964,127.1589074
12,22,천안여중입구,천안여중앞,36.80049222,127.1590016
12,23,삼룡교,삼  룡  교,36.7978992,127.1591872
12,24,구성초등학교, 구성초교,36.79359597,127.1603211
12,25,구성신성아파트,구성신성 A,36.79132701,127.1624531
12,26,천안박물관,천안박물관,36.7863024,127.1648077
12,27,원삼거리, 원삼거리,36.7836693,127.1650659
12,28,천안여자고등학교, 천안여고,36.77950419,127.1650802
12,29,선문대(천안),선문대학교,36.7730421,127.1646065
12,30,도리티고개,도리티고개,36.7658773,127.1669045
12,31,LS일렉트릭,L S 일 렉,36.76355961,127.1696757
12,32,부영아파트입구,부영A입구,36.7615774,127.1724646
12,33,부영아파트,부영아파트,36.7604214,127.1782955
12,1,부영아파트,부영아파트,36.76055464,127.1781557
12,2,부영아파트입구,부영A입구,36.76162963,127.1722707
12,3,LS일렉트릭,L S 일 렉,36.76387299,127.1695358
12,4,도리티고개,도리티고개,36.76701127,127.1664474
12,5,선문대(천안),선문대학교,36.77294961,127.1649224
12,6,천안여자고등학교, 천안여고,36.78047633,127.1654907
12,7,원삼거리,원삼거리,36.7828663,127.1655307
12,8,천안박물관,천안박물관,36.7869163,127.1650874
12,9,구성신성아파트,구성신성A,36.7916663,127.1625191
12,10,구성초등학교, 구성초교,36.79378962,127.1603407
12,11,삼룡교,삼  룡  교,36.7978865,127.1594619
12,12,천안여중입구,천안여중,36.7999936,127.1593035
12,13,원성극동아파트,원성극동 A,36.80257013,127.1590813
12,14,교보사거리,교보사거리,36.80472992,127.1589439
12,15,교보생명,교보생명,36.80735799,127.1587324
12,16,중앙고등학교,중앙고교,36.81141632,127.1584774
12,17,신부경남아파트,신부경남A,36.81559628,127.1583541
12,18,고속터미널,고속터미널,36.81895798,127.1545407
12,19,성정1동행정복지센터,성 정 1 동,36.81804075,127.1426022
12,20,성정초등학교, 성정초교,36.81538944,127.1419424
12,21,주공5단지아파트,주공5단지,36.81386294,127.1382024
12,22,봉명 청솔아파트,봉명청솔 A,36.811046,127.1333588
12,23,계광중학교,계광중학교,36.80775156,127.1326363
12,24,천안여상입구, 여상입구,36.80469794,127.1321408
12,25,열린치과, 열린치과,36.80322966,127.1290474
12,26,주공7단지,주공 7단지,36.80086461,127.1266907
12,27,쌍용초등학교,쌍용초교,36.80061462,127.1229641
12,28,용암마을,용암마을,36.8009716,127.1208239
12,29,쌍용동맘마마트,맘마마트,36.798903,127.1181079
12,30,나사렛대학교,나사렛대,36.79546912,127.1176185
12,31,쌍용역(방아다리공원방면),쌍용역,36.793798,127.120947
12,32,방아다리공원,방아다리,36.79311153,127.1168696
14,1,방아다리공원,방아다리,36.79301183,127.1170096
14,2,나사렛대학교,나사렛대,36.79542962,127.1178157
14,3,쌍용동맘마마트,맘마마트,36.79883455,127.118248
14,4,쌍용3동행정복지센터,쌍 용 3 동,36.8031025,127.1189809
14,5,용암초등학교,용암초,36.80452072,127.1186098
14,6,불당호반아파트,불당호반 A,36.80550394,127.1161022
14,7,불당동일하이빌3단지,불당동일 A,36.80681537,127.1115229
14,8,불당동일하이빌2단지,불당동일 A,36.80850635,127.1109052
14,9,트윈팰리스,트윈팰리스,36.811045,127.1117324
14,10,천안시청 서북구보건소, 천안시청,36.81392798,127.1158357
14,11,백석호반1차아파트,백석호반 A,36.81835357,127.1189338
14,12,백석호반2차아파트,백석호반 A,36.81925199,127.1199854
14,13,백석그린빌아파트, 그린빌 A,36.82320628,127.1211974
14,14,두정부경아파트,두정부경 A,36.82681797,127.1273941
14,15,두정세광아파트,두정세광 A,36.82923299,127.1274424
14,16,백석더샵아파트,백석더샵,36.83092964,127.1236174
14,17,백석아이파크, 아이파크 ,36.83300961,127.1236174
14,18,두정대우5차아파트,대우 5차 A,36.83384512,127.1291587
14,19,두정도서관,두정도서관,36.8337435,127.1355327
14,20,두정중학교,두정중학교,36.83547129,127.1383558
14,21,"부성2동행정복지센터,두정경남아파트",부 성 2 동,36.83763632,127.1382974
14,22,두정대우3차아파트,대우 3차 A,36.83879962,127.1437691
14,23,두정우남아파트,두정우남 A,36.83809797,127.1455407
14,24,주공8단지아파트,주공 8단지,36.83511835,127.1454581
14,25,두정역,두  정  역,36.83266484,127.1479053
14,26,두정역입구,두정역입구,36.83139281,127.1518104
14,27,이안아파트 코아루아파트,이안아파트,36.82884583,127.1522152
14,28,역말오거리,역말오거리,36.82691798,127.1527124
14,29,신부우방아파트,신부우방 A,36.82342295,127.1526374
14,30,신부청광아파트,신부청광 A,36.82162686,127.1521151
14,31,종합터미널,종합터미널,36.8187607,127.1556582
14,32,대림한숲아파트,대림한숲 A,36.8193751,127.1595809
14,33,천안톨게이트,천안 TG,36.82824318,127.1677016
14,34,상명대학교,상명대학교,36.83428295,127.1739541
14,35,단국대치대병원, 치대병원 ,36.83703799,127.1743541
14,36,금호어울림아파트,금호어울림,36.83877783,127.1777027
14,37,백석문화대,백석대학교,36.83963095,127.1792607
14,38,백석대 정문,백석대정문,36.84122964,127.1813974
14,39,백석대학교(운동장),백석대학교,36.8406499,127.1851781
14,1,백석대학교(운동장),백석대학교,36.84076694,127.1853061
14,2,백석대목양관,백석목양관,36.84120464,127.1828056
14,3,백석대 정문,백석대정문,36.84135168,127.1815568
14,4,백석대학교,백석대학교,36.83989799,127.1793791
14,5,금호어울림아파트,금호어울림,36.83864131,127.1767157
14,6,상명대학교,상명대학교,36.8330796,127.1730008
14,7,천안톨게이트, 천안 TG,36.82835666,127.1676106
14,8,도솔광장,도솔광장,36.8224033,127.162808
14,9,대림한숲아파트,대림한숲 A,36.81993963,127.1597741
14,10,고속터미널,고속터미널,36.81895798,127.1545407
14,11,신부청광아파트,신부청광 A,36.82101139,127.1521933
14,12,동아태조아파트,동아태조 A,36.8227316,127.1526522
14,13,역말오거리,역말오거리,36.82615796,127.1530874
14,14,이안아파트 코아루아파트,이안아파트,36.82901129,127.1525124
14,15,두정역푸르지오,푸르지오 A,36.83230796,127.1508891
14,16,두정역,두  정  역,36.83304298,127.1473341
14,17,한성3차아파트,한성 3차 A,36.83488796,127.1457141
14,18,두정우남아파트,두정우남 A,36.83818848,127.1457463
14,19,한기대(두정),한국기술대,36.8391863,127.1421457
14,20,"부성2동행정복지센터,두정계룡아파트",부 성 2 동,36.83755463,127.1382058
14,21,두정도서관,두정도서관,36.83388966,127.1354357
14,22,두정고등학교, 두정고교 ,36.83394293,127.1325424
14,23,두정대우5차아파트,대우 5차 A,36.83410081,127.1290377
14,24,계룡리슈빌,계룡리슈빌,36.83257179,127.1233255
14,25,백석더샵아파트,백석더샵,36.83048387,127.1238614
14,26,두정세광아파트,두정세광 A,36.82930045,127.127192
14,27,두정부경아파트,두정부경 A,36.82692875,127.1271321
14,28,한방병원, 한방병원,36.82446964,127.1260441
14,29,백석그린빌아파트, 그린빌 A,36.82342963,127.1210407
14,30,백석초등학교, 백석초교 ,36.8205491,127.1200824
14,31,주공그린빌3차아파트,주공그린빌,36.819102,127.1196895
14,32,백석11단지,백석11단지,36.81876387,127.1179086
14,33,천안시청 서북구보건소, 천안시청,36.81408213,127.115595
14,34,트윈팰리스,트윈팰리스,36.81151469,127.1115843
14,35,불당아이파크,불당I파크 ,36.80875251,127.1107399
14,36,불당대동아파트108동앞,불당대동 A,36.80647705,127.1120144
14,37,불당대원아파트,불당대원 A,36.80478071,127.1167191
14,38,쌍용3동행정복지센터,쌍 용 3 동,36.8032196,127.1187602
14,39,쌍용동맘마마트,맘마마트,36.798903,127.1181079
14,40,나사렛대학교,나사렛대,36.79546912,127.1176185
14,41,방아다리공원,방아다리,36.79311153,127.1168696
20,1,단대병원, 단대병원,36.8413349,127.1741122
20,2,단대병원, 단대병원,36.83938797,127.1742724
20,3,상명대학교,상명대학교,36.8330796,127.1730008
20,4,천안톨게이트, 천안 TG,36.82835666,127.1676106
20,5,도솔광장,도솔광장,36.8224033,127.162808
20,6,대림한숲아파트,대림한숲 A,36.81993963,127.1597741
20,7,고속터미널,고속터미널,36.81895798,127.1545407
20,8,신부청광아파트,신부청광 A,36.82101139,127.1521933
20,9,동아태조아파트,동아태조 A,36.8227316,127.1526522
20,10,역말오거리,역말오거리,36.82615796,127.1530874
20,11,이안아파트 코아루아파트,이안아파트,36.82901129,127.1525124
20,12,두정역푸르지오,푸르지오 A,36.83230796,127.1508891
20,13,두정역,두  정  역,36.83304298,127.1473341
20,14,두정대우1차아파트,두정대우 A,36.83345631,127.1443291
20,15,두정대림아파트,두정대림 A,36.8336754,127.1407063
20,16,두정양돈농협,양돈농협,36.8335726,127.1380377
20,17,성정중학교,성정중학교,36.8299568,127.1377217
20,18,성정현대아파트,성정현대 A,36.82442769,127.1369371
20,19,성정선경아파트,성정선경 A,36.8213033,127.1361433
20,20,구상골사거리,구 상 골 4,36.81704051,127.1351366
20,21,성정동 전자랜드,전자랜드,36.8142555,127.1343088
20,22,봉명 청솔아파트,봉명청솔 A,36.811046,127.1333588
20,23,계광중학교,계광중학교,36.80775156,127.1326363
20,24,일성아파트,일   성  A,36.80777398,127.1302187
20,25,시영1차아파트, 시영1차A ,36.8073613,127.1282357
20,26,천안컨벤션센터,컨벤션센터,36.8046713,127.1276324
20,27,주공7단지,주공 7단지,36.80086461,127.1266907
20,28,쌍용초등학교,쌍용초교,36.80061462,127.1229641
20,29,용암마을, 용암마을,36.80105907,127.1200158
20,30,불당 한성아파트,불당한성 A,36.80177419,127.114517
20,31,천안교육지원청,천안교육청,36.80054965,127.1111791
20,32,충남북부상공회의소,상공회의소,36.7978613,127.1086324
20,33,와이시티,와이시티,36.79819,127.10632
20,34,갤러리아백화점, 갤러리아 ,36.80146069,127.1045475
20,35,불당시티프라디움3차,프라디움,36.7971352,127.100265
20,36,불당중흥2차프라디움,중흥2차,36.7955275,127.1006813
20,37,천안아산역,천안아산역,36.793545,127.1038693
20,1,천안아산역,천안아산역,36.79431,127.10368
20,2,펜타포트, 펜타포트 ,36.79744461,127.1008124
20,3,서당골,서  당  골,36.80050133,127.1006674
20,4,갤러리아백화점, 갤러리아 ,36.80115796,127.1042941
20,5,불당동문화카페거리, 카페거리,36.80163461,127.1067391
20,6,불당풍림아이원아파트,풍림아이A,36.8005383,127.1083933
20,7,충남북부상공회의소,상공회의소,36.79809,127.10926
20,8,천안교육지원청,천안교육청,36.8004692,127.1115156
20,9,한화꿈에그린아파트,꿈에그린A,36.80162298,127.1137791
20,10,월봉청솔아파트,월봉청솔 A,36.80130127,127.1162874
20,11,용암마을, 용암마을,36.80091465,127.1194491
20,12,쌍용한라동백아파트,한라동백A,36.80018299,127.1240358
20,13,광명아파트,광명아파트,36.80084289,127.1269243
20,14,천안컨벤션센터,컨벤션센터,36.80440961,127.1277541
20,15,일성아파트,일   성  A,36.8076207,127.1299445
20,16,계광중학교,계광중학교,36.80808965,127.1329274
20,17,대우5차아파트,대우 5차 A,36.8110063,127.1336858
20,18,국민은행 성정점, 국민은행 ,36.81485298,127.1347941
20,19,구상골사거리,구 상 골 4,36.8169929,127.135371
20,20,성정선경아파트,성정선경 A,36.82130796,127.1363957
20,21,성정현대아파트,성정현대 A,36.8244927,127.1371386
20,22,여성회관, 여성회관,36.82724299,127.1375791
20,23,성정중학교,성정중학교,36.83070794,127.1379608
20,24,펜타폴리스 2차,펜타폴리스,36.8334685,127.1405688
20,25,두정대우1차아파트,두정대우 A,36.83324168,127.1442197
20,26,두정역,두  정  역,36.83266484,127.1479053
20,27,두정역입구,두정역입구,36.83139281,127.1518104
20,28,이안아파트 코아루아파트,이안아파트,36.82884583,127.1522152
20,29,역말오거리,역말오거리,36.82691798,127.1527124
20,30,신부우방아파트,신부우방 A,36.82342295,127.1526374
20,31,신부청광아파트,신부청광아파트,36.8216856,127.1521265
20,32,신부청광아파트,신부청광 A,36.82162686,127.1521151
20,33,종합터미널,종합터미널,36.8187607,127.1556582
20,34,대림한숲아파트,대림한숲 A,36.8193751,127.1595809
20,35,천안톨게이트,천안 TG,36.82824318,127.1677016
20,36,상명대학교,상명대학교,36.83428295,127.1739541
20,37,단국대치대병원, 치대병원 ,36.83703799,127.1743541
20,38,단대병원, 단대병원 ,36.8412905,127.1743703
21,1,백석농공단지, 백석농공,36.8245896,127.1098373
21,2,원랜드패션몰,원랜드패션,36.82382299,127.1062907
21,3,불당리더힐스,리더힐스,36.82201384,127.1015811
21,4,불당이안아파트,불당이안,36.8198805,127.1011839
21,5,호반센트로포레,호반센트로,36.8182129,127.1006924
21,6,린스트라우스,린스트라우,36.8170538,127.1015472
21,7,불당신도시,불당신도시,36.8166013,127.103968
21,8,시청앞사거리,시청사거리,36.815664,127.1085258
21,9,천안시청시의회,시청시의회,36.81592336,127.1126769
21,10,천안시청, 천안시청 ,36.81607966,127.1145045
21,11,천안시청 서북구보건소, 천안시청,36.81408213,127.115595
21,12,트윈팰리스,트윈팰리스,36.81151469,127.1115843
21,13,불당아이파크,불당I파크 ,36.80875251,127.1107399
21,14,불당대동아파트108동앞,불당대동 A,36.80647705,127.1120144
21,15,불당대동다숲,대동다숲 A,36.80505757,127.1129314
21,16,불당한성아파트,불당한성A,36.80304803,127.1122592
21,17,천안교육지원청,천안교육청,36.80054965,127.1111791
21,18,충남북부상공회의소,상공회의소,36.7978613,127.1086324
21,19,패션2광장,패션2광장,36.79334,127.10718
21,20,아산역,아  산  역,36.79158,127.10288
21,21,펜타포트, 펜타포트 ,36.79744461,127.1008124
21,22,서당골,서  당  골,36.80050133,127.1006674
21,23,갤러리아백화점, 갤러리아 ,36.80115796,127.1042941
21,24,불당동문화카페거리, 카페거리,36.80163461,127.1067391
21,25,월봉중학교,월봉중학교,36.80183965,127.1110957
21,26,한화꿈에그린아파트,꿈에그린A,36.80162298,127.1137791
21,27,월봉청솔아파트,월봉청솔 A,36.80130127,127.1162874
21,28,용암마을, 용암마을,36.80091465,127.1194491
21,29,쌍용한라동백아파트,한라동백A,36.80018299,127.1240358
21,30,쌍용동사거리,쌍용사거리,36.7993939,127.1276448
21,31,쌍용동 이마트,이마트쌍용,36.79631584,127.1287697
21,32,성지새말아파트,성지새말 A,36.79230628,127.1288841
21,33,현대 향촌아파트,현대향촌 A,36.7897316,127.1286902
21,34,한라 동백2차아파트정문,한라동백 A,36.78817834,127.1302481
21,35,용곡한라비발디후문,비발디후문,36.78870223,127.133516
21,36,용곡한라비발디아파트,한라비발디,36.78791431,127.1354213
21,37,용곡동일4단지아파트,용곡동일 A,36.78975097,127.1399425
21,38,만수사,만  수  사,36.7948732,127.1468978
21,39,용곡아이파크아파트,용곡I파크,36.7935823,127.1441724
21,40,청수초등학교,청수초등학교,36.78801064,127.1516824
21,41,청수극동2차아파트, 극동2차A,36.7893504,127.1544843
21,42,동남경찰서,동남경찰서,36.78730629,127.1567341
21,43,청룡동행정복지센터,청룡동센터,36.78585295,127.1569741
21,44,대전지방법원천안지원,천안지원,36.7851947,127.1550777
21,45,한양수자인,한양수자인,36.78340964,127.1523757
21,46,청당초등학교입구,청당초교,36.781636,127.1530338
21,47,천안우리병원, 우리병원 ,36.78122795,127.1562941
21,48,청당벽산아파트,청당벽산 A,36.78110798,127.1593924
21,1,청당벽산아파트,청당벽산 A,36.78110798,127.1593924
21,2,청삼교차로,청삼교차로,36.7818673,127.1632614
21,3,한양수자인,한양수자인,36.78349127,127.1525491
21,4,대전지방검찰청천안지청,천안지청,36.7845432,127.1536393
21,5,청룡동행정복지센터,청룡동센터,36.78572841,127.1570883
21,6,동남경찰서,동남경찰서,36.78780462,127.1566991
21,7,청수극동2차아파트, 극동2차A,36.78931001,127.1555958
21,8,청수초등학교, 청수초교 ,36.78814704,127.1515655
21,9,만수사,만  수  사,36.7948732,127.1468978
21,10,용곡아이파크아파트,용곡I파크,36.7935823,127.1441724
21,11,용곡동일4단지아파트,용곡동일 A,36.79014131,127.1399107
21,12,용곡한라비발디아파트,한라비발디,36.7886077,127.1351604
21,13,현대 향촌아파트정문,현대향촌 A,36.78843038,127.1303718
21,14,현대향촌아파트,현대향촌 A,36.78997758,127.1291328
21,15,성지새말아파트,성지새말 A,36.7921028,127.129131
21,16,쌍용동 이마트,이마트쌍용,36.79631298,127.1290624
21,17,쌍용동사거리,쌍용사거리,36.7998745,127.1270988
21,18,쌍용초등학교,쌍용초교,36.80061462,127.1229641
21,19,용암마을, 용암마을,36.80105907,127.1200158
21,20,불당 한성아파트,불당한성 A,36.80177419,127.114517
21,21,월봉고등학교, 월봉고교 ,36.80215674,127.1093388
21,22,갤러리아백화점, 갤러리아 ,36.80146069,127.1045475
21,23,불당시티프라디움3차,프라디움,36.7971352,127.100265
21,24,불당중흥2차프라디움,중흥2차,36.7955275,127.1006813
21,25,아산역,아  산  역,36.7915,127.1036
21,26,패션2광장,패션2광장,36.79388,127.1074
21,27,충남북부상공회의소,상공회의소,36.79809,127.10926
21,28,천안교육지원청,천안교육청,36.8004692,127.1115156
21,29,불당한성아파트,불당한성A,36.80281799,127.1124357
21,30,불당동행정복지센터,불당동,36.8050216,127.113191
21,31,불당동일하이빌3단지,불당동일 A,36.80681537,127.1115229
21,32,불당동일하이빌2단지,불당동일 A,36.80850635,127.1109052
21,33,트윈팰리스,트윈팰리스,36.811045,127.1117324
21,34,천안시청 서북구보건소, 천안시청,36.81392798,127.1158357
21,35,천안시청, 천안시청 ,36.81625965,127.1145991
21,36,천안시청시의회,시청시의회,36.81569869,127.1123449
21,37,시청앞사거리,시청사거리,36.816008,127.1085814
21,38,불당신도시,불당신도시,36.8168944,127.1040113
21,39,호반센트로포레,호반센트로,36.8173127,127.1021233
21,40,호반센트로포레,호반센트로,36.8184214,127.1010165
21,41,불당이안아파트,불당이안A,36.820672,127.1017224
21,42,원랜드패션몰,원랜드패션,36.82373461,127.1058441
21,43,백석농공단지,백석농공,36.824728,127.1099835
30,1,방아다리공원,방아다리,36.79301183,127.1170096
30,2,나사렛대학교,나사렛대,36.79542962,127.1178157
30,3,쌍용동맘마마트,맘마마트,36.79883455,127.118248
30,4,용암마을, 용암마을,36.80091465,127.1194491
30,5,쌍용한라동백아파트,한라동백A,36.80018299,127.1240358
30,6,쌍용동사거리,쌍용사거리,36.7993939,127.1276448
30,7,쌍용패션거리, 패션거리,36.80244569,127.1319201
30,8,천안여상입구, 여상입구,36.80492959,127.1323538
30,9,계광중학교,계광중학교,36.80808965,127.1329274
30,10,대우5차아파트,대우 5차 A,36.8110063,127.1336858
30,11,국민은행 성정점, 국민은행 ,36.81485298,127.1347941
30,12,구상골사거리,구 상 골 4,36.8169929,127.135371
30,13,성정선경아파트,성정선경 A,36.82130796,127.1363957
30,14,성정현대아파트,성정현대 A,36.8244927,127.1371386
30,15,여성회관, 여성회관,36.82724299,127.1375791
30,16,성정중학교,성정중학교,36.83070794,127.1379608
30,17,펜타폴리스 2차,펜타폴리스,36.8334685,127.1405688
30,18,두정대우1차아파트,두정대우 A,36.83324168,127.1442197
30,19,한성3차아파트,한성 3차 A,36.83488796,127.1457141
30,20,두정우남아파트,두정우남 A,36.83818848,127.1457463
30,21,부성1동행정복지센터,부 성 1 동,36.84380965,127.1541108
30,22,공주대공과대학,공주대공대,36.8511805,127.155496
30,23,천안상업고등학교(e편한세상천안부성아파트),천안상고,36.85753461,127.1530941
30,24,"메가도매센터, 농수산물도매시장",농수산시장,36.86175799,127.1512024
30,25,신당동,신  당  동,36.86462295,127.1501541
30,26,직산역입구,직산역입구,36.87085795,127.1482857
30,27,직산읍행정복지센터,직산읍센터,36.87689505,127.1497422
30,28,서북구청, 서북구청,36.87731752,127.1543549
30,29,삼환나우빌,삼환나우빌,36.87770794,127.1581757
30,30,소우리입구,소우리입구,36.8780412,127.162696
30,31,소우1리(바조리),소 우 1 리,36.87841798,127.1663774
30,32,충청연수원 입구,연수원입구,36.87869963,127.1740057
30,33,문덕리,문  덕  리,36.8786285,127.1804676
30,34,성거하늘빛아파트,성거하늘빛,36.87722964,127.1818848
30,35,송남리,송  남  리,36.87795799,127.1949791
30,36,성거읍행정복지센터,성  거  읍,36.87723962,127.1984507
30,37,성거포도마을아파트,포도마을A,36.88665647,127.2062976
30,38,청호포도마을아파트,청호포도A,36.88660629,127.2066141
30,39,천흥공단, 천흥공단,36.88334752,127.2064518
30,40,아느칸빌아파트,아느칸빌 A,36.88053864,127.2058126
30,41,수청거리, 수청거리 ,36.87851965,127.2039614
30,42,삼일아파트,삼일아파트,36.87435965,127.2017641
30,43,성거초등학교, 성거초교,36.8709392,127.2000018
30,44,충남예술고등학교, 충남예고,36.86934631,127.1989158
30,1,충남예술고등학교, 충남예고,36.8692463,127.1990491
30,2,성거도서관,성거도서관,36.87141168,127.2005068
30,3,천흥리,천  흥  리,36.8744186,127.2019489
30,4,수청거리, 수청거리 ,36.8787463,127.2044057
30,5,아느칸빌아파트,아느칸빌 A,36.88042127,127.2059057
30,6,천흥공단, 천흥공단,36.88340296,127.2066408
30,7,청호포도마을아파트,청호포도A,36.88622874,127.2066782
30,8,성거포도마을아파트,포도마을A,36.88660649,127.2059296
30,9,성거읍행정복지센터,성  거  읍,36.8774235,127.1985058
30,10,송남리,송  남  리,36.8781163,127.1951991
30,11,문덕1리입구,문 덕 1 리,36.87913629,127.1846591
30,12,문덕리,문  덕  리,36.87907131,127.1809924
30,13,충청연수원 입구,연수원입구,36.87891961,127.1748591
30,14,소우리입구,소우리입구,36.87850966,127.1656841
30,15,벽산아파트,벽산아파트,36.87787275,127.1579027
30,16,서북구청, 서북구청,36.87742966,127.1534757
30,17,직산읍행정복지센터,직산읍센터,36.87710178,127.1496331
30,18,직산사거리,직산사거리,36.87592133,127.1465491
30,19,직산역입구,직산역입구,36.87152298,127.1478441
30,20,신당동,신  당  동,36.8645698,127.1499318
30,21,농수산물도매시장,농수산시장,36.86149465,127.1509508
30,22,천안상업고등학교(e편한세상천안부성아파트),천안상고,36.856378,127.1533774
30,23,공주대공과대학,공주대공대,36.84916294,127.1552191
30,24,부성1동행정복지센터,부 성 1 동,36.84286627,127.1528757
30,25,한기대(두정),한국기술대,36.8391863,127.1421457
30,26,두정대우3차아파트,대우 3차 A,36.83879962,127.1437691
30,27,두정우남아파트,두정우남 A,36.83809797,127.1455407
30,28,주공8단지아파트,주공 8단지,36.83511835,127.1454581
30,29,두정대우1차아파트,두정대우 A,36.83345631,127.1443291
30,30,두정대림아파트,두정대림 A,36.8336754,127.1407063
30,31,두정양돈농협,양돈농협,36.8335726,127.1380377
30,32,성정중학교,성정중학교,36.8299568,127.1377217
30,33,성정현대아파트,성정현대 A,36.82442769,127.1369371
30,34,성정선경아파트,성정선경 A,36.8213033,127.1361433
30,35,구상골사거리,구 상 골 4,36.81704051,127.1351366
30,36,성정동 전자랜드,전자랜드,36.8142555,127.1343088
30,37,봉명 청솔아파트,봉명청솔 A,36.811046,127.1333588
30,38,계광중학교,계광중학교,36.80775156,127.1326363
30,39,천안여상입구, 여상입구,36.80469794,127.1321408
30,40,쌍용패션거리, 패션거리,36.80204793,127.1317057
30,41,쌍용동사거리,쌍용사거리,36.7998745,127.1270988
30,42,쌍용초등학교,쌍용초교,36.80061462,127.1229641
30,43,용암마을,용암마을,36.8009716,127.1208239
30,44,쌍용동맘마마트,맘마마트,36.798903,127.1181079
30,45,나사렛대학교,나사렛대,36.79546912,127.1176185
30,46,방아다리공원,방아다리,36.79311153,127.1168696
31,1,방아다리공원,방아다리,36.79301183,127.1170096
31,2,나사렛대학교,나사렛대,36.79542962,127.1178157
31,3,쌍용동맘마마트,맘마마트,36.79883455,127.118248
31,4,용암마을, 용암마을,36.80091465,127.1194491
31,5,쌍용한라동백아파트,한라동백A,36.80018299,127.1240358
31,6,쌍용동사거리,쌍용사거리,36.7993939,127.1276448
31,7,쌍용패션거리, 패션거리,36.80244569,127.1319201
31,8,천안여상입구, 여상입구,36.80492959,127.1323538
31,9,계광중학교,계광중학교,36.80808965,127.1329274
31,10,대우5차아파트,대우 5차 A,36.8110063,127.1336858
31,11,국민은행 성정점, 국민은행 ,36.81485298,127.1347941
31,12,구상골사거리,구 상 골 4,36.8169929,127.135371
31,13,성정선경아파트,성정선경 A,36.82130796,127.1363957
31,14,성정현대아파트,성정현대 A,36.8244927,127.1371386
31,15,여성회관, 여성회관,36.82724299,127.1375791
31,16,성정중학교,성정중학교,36.83070794,127.1379608
31,17,펜타폴리스 2차,펜타폴리스,36.8334685,127.1405688
31,18,두정대우1차아파트,두정대우 A,36.83324168,127.1442197
31,19,한성3차아파트,한성 3차 A,36.83488796,127.1457141
31,20,두정우남아파트,두정우남 A,36.83818848,127.1457463
31,21,부성1동행정복지센터,부 성 1 동,36.84380965,127.1541108
31,22,공주대공과대학,공주대공대,36.8511805,127.155496
31,23,천안상업고등학교(e편한세상천안부성아파트),천안상고,36.85753461,127.1530941
31,24,"메가도매센터, 농수산물도매시장",농수산시장,36.86175799,127.1512024
31,25,신당동,신  당  동,36.86462295,127.1501541
31,26,직산역입구,직산역입구,36.87085795,127.1482857
31,27,직산읍행정복지센터,직산읍센터,36.87689505,127.1497422
31,28,서북구청, 서북구청,36.87731752,127.1543549
31,29,삼환나우빌,삼환나우빌,36.87770794,127.1581757
31,30,소우리입구,소우리입구,36.8780412,127.162696
31,31,소우1리(바조리),소 우 1 리,36.87841798,127.1663774
31,32,충청연수원 입구,연수원입구,36.87869963,127.1740057
31,33,문덕리,문  덕  리,36.8786285,127.1804676
31,34,성거하늘빛아파트,성거하늘빛,36.87722964,127.1818848
31,35,송남리,송  남  리,36.87795799,127.1949791
31,36,성거읍행정복지센터,성  거  읍,36.87723962,127.1984507
31,37,성거 SKC,성거  SKC,36.87649118,127.2011253
31,38,삼일아파트,삼일아파트,36.8747928,127.2019923
31,39,천흥리(종점),천  흥  리,36.8730555,127.2106701
31,1,천흥리(종점),천  흥  리,36.87321641,127.2106143
31,2,천흥리,천  흥  리,36.8744186,127.2019489
31,3,성 거  SKC,성거  SKC,36.87657981,127.2014061
31,4,성거읍행정복지센터,성  거  읍,36.8774235,127.1985058
31,5,송남리,송  남  리,36.8781163,127.1951991
31,6,문덕1리입구,문 덕 1 리,36.87913629,127.1846591
31,7,문덕리,문  덕  리,36.87907131,127.1809924
31,8,충청연수원 입구,연수원입구,36.87891961,127.1748591
31,9,소우리입구,소우리입구,36.87850966,127.1656841
31,10,벽산아파트,벽산아파트,36.87787275,127.1579027
31,11,서북구청, 서북구청,36.87742966,127.1534757
31,12,직산읍행정복지센터,직산읍센터,36.87710178,127.1496331
31,13,직산사거리,직산사거리,36.87592133,127.1465491
31,14,직산역입구,직산역입구,36.87152298,127.1478441
31,15,신당동,신  당  동,36.8645698,127.1499318
31,16,농수산물도매시장,농수산시장,36.86149465,127.1509508
31,17,천안상업고등학교(e편한세상천안부성아파트),천안상고,36.856378,127.1533774
31,18,공주대공과대학,공주대공대,36.84916294,127.1552191
31,19,부성1동행정복지센터,부 성 1 동,36.84286627,127.1528757
31,20,한기대(두정),한국기술대,36.8391863,127.1421457
31,21,두정대우3차아파트,대우 3차 A,36.83879962,127.1437691
31,22,두정우남아파트,두정우남 A,36.83809797,127.1455407
31,23,주공8단지아파트,주공 8단지,36.83511835,127.1454581
31,24,두정대우1차아파트,두정대우 A,36.83345631,127.1443291
31,25,두정대림아파트,두정대림 A,36.8336754,127.1407063
31,26,두정양돈농협,양돈농협,36.8335726,127.1380377
31,27,성정중학교,성정중학교,36.8299568,127.1377217
31,28,성정현대아파트,성정현대 A,36.82442769,127.1369371
31,29,성정선경아파트,성정선경 A,36.8213033,127.1361433
31,30,구상골사거리,구 상 골 4,36.81704051,127.1351366
31,31,성정동 전자랜드,전자랜드,36.8142555,127.1343088
31,32,봉명 청솔아파트,봉명청솔 A,36.811046,127.1333588
31,33,계광중학교,계광중학교,36.80775156,127.1326363
31,34,천안여상입구, 여상입구,36.80469794,127.1321408
31,35,쌍용패션거리, 패션거리,36.80204793,127.1317057
31,36,쌍용동사거리,쌍용사거리,36.7998745,127.1270988
31,37,쌍용초등학교,쌍용초교,36.80061462,127.1229641
31,38,용암마을,용암마을,36.8009716,127.1208239
31,39,쌍용동맘마마트,맘마마트,36.798903,127.1181079
31,40,나사렛대학교,나사렛대,36.79546912,127.1176185
31,41,방아다리공원,방아다리,36.79311153,127.1168696
62,1,남부고가교,남부고가교,36.7829315,127.1432912
62,2,용곡세광아파트,용곡세광 A,36.78076965,127.1418377
62,3,용곡세광엔리치타워,세광엔리치,36.7789829,127.1405415
62,4,새샘중학교,새샘중학교,36.775884,127.1391877
62,5,현대까치아파트,현대까치 A,36.77266961,127.1378077
62,6,구룡2통,구 룡 2 통,36.7665616,127.1382016
62,7,구룡2통,구 룡 2 통,36.7663314,127.1383943
62,8,신방한라비발디후문,비발디후문,36.77018288,127.1342919
62,9,신방한라비발디아파트,한라비발디,36.77087186,127.1323612
62,10,"신방도서관, 푸르지오아파트",신방도서관,36.77314295,127.1319424
62,11,새마을금고,새마을금고,36.77485963,127.1339607
62,12,한성필하우스,한  성  필,36.77643962,127.1349274
62,13,하나리움,하나리움,36.7782243,127.131841
62,14,신흥방산마을,방산마을,36.7790242,127.1284561
62,15,신방체육관,신방체육관,36.78528195,127.1288483
62,16,신방한라동백아파트,한라동백 A,36.78760879,127.1289211
62,17,현대향촌아파트,현대향촌 A,36.78997758,127.1291328
62,18,성지새말아파트,성지새말 A,36.7921028,127.129131
62,19,쌍용동 이마트,이마트쌍용,36.79631298,127.1290624
62,20,쌍용패션거리, 패션거리,36.80244569,127.1319201
62,21,천안여상입구, 여상입구,36.80492959,127.1323538
62,22,천안고등학교, 천안고교,36.80708686,127.1355617
62,23,봉명1교,봉명1교,36.80669911,127.142002
62,24,동남구보건소,동남보건소,36.8083113,127.1505244
62,25,천안역,천  안  역,36.80911797,127.1488424
62,26,천안역 동부광장,천안역동부,36.8083388,127.147642
62,27,온양나드리,온양나드리,36.8033957,127.1459932
62,28,남산중앙시장,중앙시장,36.8005047,127.1487406
62,29,영성로,영  성  로,36.7984753,127.1508314
62,30,남부오거리,남부오거리,36.7982139,127.1517372
62,31,우성VIP 아파트,우성 VIP A,36.79842431,127.1562394
62,32,충무로사거리, 충무로 4,36.79862631,127.1606308
62,33,홈플러스, 홈플러스 ,36.79874294,127.1634124
62,34,신성미소지움아파트,미소지움 A,36.79226235,127.1645478
62,35,천안동중학교, 천안동중,36.78786298,127.1656891
62,36,천안삼거리공원,삼거리공원,36.7842081,127.1691222
62,37,삼룡동새마을회관,새마을회관,36.7804555,127.1735565
62,38,"천안의료원,고려신학대학원",천안의료원,36.7759539,127.1783259
62,1,"천안의료원,고려신학대학원",천안의료원,36.776238,127.1777027
62,2,삼룡동새마을회관,새마을회관,36.78093295,127.1733924
62,3,천안삼거리공원,삼거리공원,36.78402463,127.1697274
62,4,천안동중학교, 천안동중,36.78778703,127.1660115
62,5,신성미소지움아파트,미소지움 A,36.79281465,127.1648808
62,6,홈플러스, 홈플러스 ,36.79891657,127.1637981
62,7,충무로사거리,충무사거리,36.7987691,127.1601093
62,8,우성VIP 아파트,우성 VIP A,36.7985872,127.1564345
62,9,남산축협,남산축협,36.7992067,127.1521362
62,10,천안중앙시장,중앙시장,36.8004711,127.1492519
62,11,온양나드리,온양나드리,36.8032386,127.1462215
62,12,천안역 동부광장,천안역동부,36.8081632,127.1477157
62,13,천안역,천  안  역,36.80882941,127.1490063
62,14,동남구보건소,동남구보건,36.80731404,127.1515393
62,15,봉명1교,봉명1교,36.8068688,127.1419862
62,16,천고사거리,천고사거리,36.8070723,127.1392308
62,17,천안고등학교, 천안고교,36.80727629,127.1353874
62,18,천안여상입구, 여상입구,36.80469794,127.1321408
62,19,쌍용패션거리, 패션거리,36.80204793,127.1317057
62,20,쌍용동 이마트,이마트쌍용,36.79631584,127.1287697
62,21,성지새말아파트,성지새말 A,36.79230628,127.1288841
62,22,현대 향촌아파트,현대향촌 A,36.7897316,127.1286902
62,23,신방초원아파트후문,신방초원 A,36.7879761,127.1285709
62,24,신방체육관,신방체육관,36.7847888,127.128361
62,25,신흥방산마을, 방산마을 ,36.77855494,127.1292143
62,26,하나리움,하나리움,36.7780083,127.1319653
62,27,한성필하우스,한  성  필,36.77641833,127.1347242
62,28,새마을금고,새마을금고,36.77489893,127.1337895
62,29,"신방도서관, 푸르지오아파트",신방도서관,36.77286052,127.1313583
62,30,신방한라비발디아파트,한라비발디,36.77075938,127.1322853
62,31,신방한라비발디후문,비발디후문,36.7700406,127.1344315
62,32,구룡2통,구 룡 2 통,36.7665616,127.1382016
62,33,구룡2통,구 룡 2 통,36.7663314,127.1383943
62,34,현대까치아파트,현대까치 A,36.77263961,127.1380441
62,35,새샘중학교,새샘중학교,36.7757179,127.1394182
62,36,청당마을신도브래뉴아파트,청당마을A,36.7787137,127.1406806
62,37,청당마을신도브래뉴아파트후문,청당마을,36.78065351,127.1420478
62,38,남부고가교(천안국빈장례식장),국빈장례식,36.7832793,127.1435552
87,1,성성자이아파트후문,성성자이A,36.8437959,127.1243206
87,2,성성푸르지오3차A,성성푸르지오3차A,36.8413924,127.126811
87,3,성성푸르지오2차아파트,성성 2차,36.8414091,127.1321944
87,4,성성초등학교,성성초교,36.8414202,127.1372683
87,5,"부성2동행정복지센터,두정계룡아파트",부 성 2 동,36.83755463,127.1382058
87,6,펜타폴리스 2차,펜타폴리스,36.8334685,127.1405688
87,7,두정대우1차아파트,두정대우 A,36.83324168,127.1442197
87,8,두정역,두  정  역,36.83266484,127.1479053
87,9,두정역입구,두정역입구,36.83139281,127.1518104
87,10,이안아파트 코아루아파트,이안아파트,36.82884583,127.1522152
87,11,역말오거리,역말오거리,36.82691798,127.1527124
87,12,신부우방아파트,신부우방 A,36.82342295,127.1526374
87,13,신부청광아파트,신부청광 A,36.82162686,127.1521151
87,14,종합터미널,종합터미널,36.8187797,127.155972
87,15,신부경남아파트,신부경남 A,36.81552076,127.1581206
87,16,천안중학교,천안중학교,36.81130964,127.1582674
87,17,교보생명, 교보생명,36.80798399,127.1584761
87,18,천안제일고등학교,천안제일고,36.80639796,127.1552241
87,19,동남구보건소,동남보건소,36.8083113,127.1505244
87,20,천안역 동부광장,천안역동부,36.8083388,127.147642
87,21,온양나드리,온양나드리,36.8033957,127.1459932
87,22,남산중앙시장,중앙시장,36.8005047,127.1487406
87,23,영성로,영  성  로,36.7984753,127.1508314
87,24,남부오거리,남부오거리,36.7982139,127.1517372
87,25,우성VIP 아파트,우성 VIP A,36.79842431,127.1562394
87,26,삼룡교,삼  룡  교,36.7978992,127.1591872
87,27,구성초등학교, 구성초교,36.79359597,127.1603211
87,28,청수고등학교, 청수고교 ,36.79047961,127.1594857
87,29,산운마을, 산운마을 ,36.78909297,127.1586074
87,30,중흥S클래스, 중 흥 S ,36.7865721,127.1585101
87,31,청룡동행정복지센터,청룡동센터,36.78585295,127.1569741
87,32,대전지방법원천안지원,천안지원,36.7851947,127.1550777
87,33,한양수자인,한양수자인,36.78340964,127.1523757
87,34,청당초등학교입구,청당초교,36.781636,127.1530338
87,35,천안우리병원, 우리병원 ,36.78122795,127.1562941
87,36,청당벽산아파트,청당벽산 A,36.78110798,127.1593924
87,37,천안시종합사회복지관,사회복지관,36.7801616,127.1641542
87,1,천안시종합사회복지관,사회복지관,36.7801616,127.1641542
87,2,청삼교차로,청삼교차로,36.7818673,127.1632614
87,3,한양수자인,한양수자인,36.78349127,127.1525491
87,4,대전지방검찰청천안지청,천안지청,36.7845432,127.1536393
87,5,청룡동행정복지센터,청룡동센터,36.78572841,127.1570883
87,6,중흥S클래스, 중 흥 S ,36.78646312,127.1586448
87,7,산운마을, 산운마을 ,36.7892013,127.1587391
87,8,청수고등학교, 청수고교 ,36.78999133,127.1589591
87,9,구성초등학교, 구성초교,36.79378962,127.1603407
87,10,구성동중앙신협,구성동신협,36.7968004,127.1595407
87,11,우성VIP 아파트,우성 VIP A,36.7985872,127.1564345
87,12,남산축협,남산축협,36.7992067,127.1521362
87,13,천안중앙시장,중앙시장,36.8004711,127.1492519
87,14,온양나드리,온양나드리,36.8032386,127.1462215
87,15,천안역 동부광장,천안역동부,36.8081632,127.1477157
87,16,천안역,천  안  역,36.80882941,127.1490063
87,17,동남구보건소,동남구보건,36.80731404,127.1515393
87,18,천안제일고등학교,천안제일고,36.80617754,127.1542699
87,19,버들로,버  들  로,36.80621995,127.1564693
87,20,교보생명,교보생명,36.80735799,127.1587324
87,21,중앙고등학교,중앙고교,36.81141632,127.1584774
87,22,신부경남아파트,신부경남A,36.81559628,127.1583541
87,23,고속터미널,고속터미널,36.81895798,127.1545407
87,24,신부청광아파트,신부청광 A,36.82101139,127.1521933
87,25,동아태조아파트,동아태조 A,36.8227316,127.1526522
87,26,역말오거리,역말오거리,36.82615796,127.1530874
87,27,이안아파트 코아루아파트,이안아파트,36.82901129,127.1525124
87,28,두정역푸르지오,푸르지오 A,36.83230796,127.1508891
87,29,두정역,두  정  역,36.83304298,127.1473341
87,30,두정대우1차아파트,두정대우 A,36.83345631,127.1443291
87,31,두정대림아파트,두정대림 A,36.8336754,127.1407063
87,32,두정중학교,두정중학교,36.83547129,127.1383558
87,33,"부성2동행정복지센터,두정경남아파트",부 성 2 동,36.83763632,127.1382974
87,34,성성초등학교,성성초교,36.84178,127.135806
87,35,성성푸르지오1차아파트,성성1차A,36.8417574,127.1340546
87,36,성성3지구근린공원,근린공원,36.8416671,127.1310828
87,37,성성푸르지오3차A,성성푸르지오3차A,36.8416628,127.1268097
87,38,성성자이아파트후문,성성자이A,36.8440033,127.1243364
97,1,"신방도서관, 푸르지오아파트",신방도서관,36.77314295,127.1319424
97,2,새마을금고,새마을금고,36.77485963,127.1339607
97,3,한성필하우스,한  성  필,36.77643962,127.1349274
97,4,하나리움,하나리움,36.7782243,127.131841
97,5,신흥방산마을,방산마을,36.7790242,127.1284561
97,6,신방체육관,신방체육관,36.78528195,127.1288483
97,7,신방초원아파트,신방초원 A,36.78729211,127.1243111
97,8,현대향촌아파트,현대향촌 A,36.78997758,127.1291328
97,9,성지새말아파트,성지새말 A,36.7921028,127.129131
97,10,이화여성병원, 이화병원,36.79425133,127.1261474
97,11,쌍용역예일병원계룡아파트,쌍  용  역,36.79307799,127.1224607
97,12,쌍용고입구,쌍용고입구,36.79054961,127.1167541
97,13,월봉대우아파트,월봉대우 A,36.79516463,127.1147507
97,14,월봉벽산아파트,월봉벽산 A,36.79859296,127.1151341
97,15,월봉청솔아파트,월봉청솔 A,36.80130127,127.1162874
97,16,용암마을, 용암마을,36.80091465,127.1194491
97,17,쌍용한라동백아파트,한라동백A,36.80018299,127.1240358
97,18,쌍용동사거리,쌍용사거리,36.7993939,127.1276448
97,19,쌍용패션거리, 패션거리,36.80244569,127.1319201
97,20,천안여상입구, 여상입구,36.80492959,127.1323538
97,21,계광중학교,계광중학교,36.80808965,127.1329274
97,22,대우5차아파트,대우 5차 A,36.8110063,127.1336858
97,23,국민은행 성정점, 국민은행 ,36.81485298,127.1347941
97,24,구상골사거리,구 상 골 4,36.8169929,127.135371
97,25,성정선경아파트,성정선경 A,36.82130796,127.1363957
97,26,성정현대아파트,성정현대 A,36.8244927,127.1371386
97,27,여성회관, 여성회관,36.82724299,127.1375791
97,28,성정중학교,성정중학교,36.83070794,127.1379608
97,29,두정중학교,두정중학교,36.83547129,127.1383558
97,30,"부성2동행정복지센터,두정경남아파트",부 성 2 동,36.83763632,127.1382974
97,31,성성레이크타운2차푸르지오아파트,성성레이크타운2차푸르지오아파트,36.83930627,127.1333941
97,32,성성레이크타운3차푸르지오A,성성레이크타운3차푸르,36.8394081,127.1270404
97,33,번영로가구타운, 가구타운,36.84624629,127.1227507
97,34,2공단입구,2공단 입구,36.85160962,127.1262524
97,35,서북경찰서,서북경찰서,36.85780395,127.1361831
97,36,업성고교, 업성고교 ,36.8599179,127.1377531
97,1,업성고교, 업성고교 ,36.8600126,127.1377863
97,2,서북경찰서,서북경찰서,36.8568163,127.1365157
97,3,번영로공구상가, 공구상가 ,36.85480799,127.1318474
97,4,2공단입구,2공단 입구,36.8506213,127.1247657
97,5,번영로가구타운, 가구타운 ,36.84634299,127.1224057
97,6,이마트 서북점,이  마  트,36.8391046,127.1220241
97,7,두정대림2차아파트,대 림 2차A,36.83901966,127.1292641
97,8,천안시장애인종합복지관,종합복지관,36.83902158,127.1325808
97,9,"부성2동행정복지센터,두정계룡아파트",부 성 2 동,36.83755463,127.1382058
97,10,두정양돈농협,양돈농협,36.8335726,127.1380377
97,11,성정중학교,성정중학교,36.8299568,127.1377217
97,12,성정현대아파트,성정현대 A,36.82442769,127.1369371
97,13,성정선경아파트,성정선경 A,36.8213033,127.1361433
97,14,구상골사거리,구 상 골 4,36.81704051,127.1351366
97,15,성정동 전자랜드,전자랜드,36.8142555,127.1343088
97,16,봉명 청솔아파트,봉명청솔 A,36.811046,127.1333588
97,17,계광중학교,계광중학교,36.80775156,127.1326363
97,18,천안여상입구, 여상입구,36.80469794,127.1321408
97,19,쌍용패션거리, 패션거리,36.80204793,127.1317057
97,20,쌍용동사거리,쌍용사거리,36.7998745,127.1270988
97,21,쌍용초등학교,쌍용초교,36.80061462,127.1229641
97,22,용암마을, 용암마을,36.80105907,127.1200158
97,23,쌍용도서관,쌍용도서관,36.80043899,127.1151394
97,24,월봉벽산아파트,월봉벽산 A,36.79817587,127.1148467
97,25,월봉5차현대아파트,월봉현대 A,36.79577635,127.1146363
97,26,쌍용고입구,쌍용고입구,36.79023545,127.1169972
97,27,삼일원앙아파트,삼일원앙 A,36.79007296,127.1198207
97,28,쌍용역해누리아이파크,쌍  용  역,36.79305796,127.1234207
97,29,쌍용고가교,쌍용고가교,36.79409963,127.1263374
97,30,성지새말아파트,성지새말 A,36.79230628,127.1288841
97,31,현대 향촌아파트,현대향촌 A,36.7897316,127.1286902
97,32,신방초원아파트후문,신방초원 A,36.7879761,127.1285709
97,33,신방체육관,신방체육관,36.7847888,127.128361
97,34,신흥방산마을, 방산마을 ,36.77855494,127.1292143
97,35,하나리움,하나리움,36.7780083,127.1319653
97,36,한성필하우스,한  성  필,36.77641833,127.1347242
97,37,새마을금고,새마을금고,36.77489893,127.1337895
97,38,"신방도서관, 푸르지오아파트",신방도서관,36.77286052,127.1313583
100,1,신부경남아파트,신부경남A,36.8147815,127.1581179
100,2,천안중학교,천안중학교,36.81130964,127.1582674
100,3,교보생명, 교보생명,36.80798399,127.1584761
100,4,교보사거리,교보사거리,36.80552772,127.1586705
100,5,원성극동아파트,원성극동 A,36.80285964,127.1589074
100,6,천안여중입구,천안여중앞,36.80049222,127.1590016
100,7,우성VIP 아파트,우성 VIP A,36.7985872,127.1564345
100,8,농협원성점,농협원성점,36.79967502,127.1535368
100,9,청과시장,청과시장,36.80328294,127.1528607
100,10,버들육거리,버들육거리,36.8054539,127.1524533
100,11,동남구보건소,동남보건소,36.8083113,127.1505244
100,12,천안역,천  안  역,36.80911797,127.1488424
100,13,삼도상가, 삼도상가,36.8116185,127.148923
100,14,복자여자중고등학교,복자여중고,36.815312,127.1502101
100,15,방죽안오거리,방 죽 안 5,36.8175776,127.1514936
100,16,신부청광아파트,신부청광 A,36.82101139,127.1521933
100,17,동아태조아파트,동아태조 A,36.8227316,127.1526522
100,18,역말오거리,역말오거리,36.82615796,127.1530874
100,19,이안아파트 코아루아파트,이안아파트,36.82901129,127.1525124
100,20,두정역입구,두정역입구,36.83254631,127.1519224
100,21,두정역마을,두정역마을,36.8358068,127.1517227
100,22,부성1동행정복지센터,부 성 1 동,36.84380965,127.1541108
100,23,공주대공과대학,공주대공대,36.8511805,127.155496
100,24,천안상업고등학교(e편한세상천안부성아파트),천안상고,36.85753461,127.1530941
100,25,"메가도매센터, 농수산물도매시장",농수산시장,36.86175799,127.1512024
100,26,신당동,신  당  동,36.86462295,127.1501541
100,27,직산역입구,직산역입구,36.87085795,127.1482857
100,28,직산사거리,직산사거리,36.877409,127.146589
100,29,직산농협산지유통센터,직산농협센터,36.8830271,127.144754
100,30,거리막,거  리  막,36.88611795,127.1427591
100,31,직산부영아파트,직산부영 A,36.89320774,127.1376068
100,32,성환E-편한세상,E 편한세상,36.90177963,127.1313224
100,33,동성중학교,동성중학교,36.90669627,127.1285107
100,34,매주리혜성아파트,매주혜성 A,36.90849844,127.1290197
100,35,삼풍아파트,삼풍아파트,36.91246987,127.1309113
100,36,성환리(성환터미널),성환터미널,36.9167153,127.1325999
100,37,성환4리,성 환 4 리,36.920839,127.133226
100,38,성환10리,성 환 10리,36.92068658,127.1288043
100,39,성신초등학교, 성신초교,36.91765545,127.1278602
100,40,성환역,성  환  역,36.91571532,127.1279794
100,41,골드아파트,골드아파트,36.91236211,127.1282185
100,42,중앙아파트,중앙아파트,36.91143577,127.1309953
100,43,천안배원예농협,천안배농협,36.9115648,127.1335866
100,44,성환문화회관,문화회관,36.91172292,127.1367313
100,45,남서울대학교, 남서울대,36.91168497,127.1428309
100,46,남서울대학교 주차장, 남서울대,36.9105701,127.1426169
100,1,남서울대학교 주차장, 남서울대,36.9105701,127.1426169
100,2,남서울대학교, 남서울대,36.91186903,127.1420998
100,3,성환문화회관, 문화회관 ,36.91185463,127.1366524
100,4,천안배원예농협,천안배농협,36.9117363,127.1336756
100,5,삼풍아파트,삼풍아파트,36.91157628,127.1309941
100,6,골드아파트,골드아파트,36.91327465,127.1283674
100,7,성환역,성  환  역,36.91556296,127.1281707
100,8,성신초등학교,성신초교,36.91718145,127.1280682
100,9,성환10리,성 환 10리,36.92048793,127.1289997
100,10,성환4리,성 환 4 리,36.92068829,127.1338026
100,11,성환터미널,성환터미널,36.91729105,127.1327387
100,12,삼풍아파트,삼풍아파트,36.91229961,127.1305841
100,13,매주1리,매 주 1 리,36.90985781,127.1291868
100,14,동성중학교,동성중학교,36.90657911,127.1283551
100,15,성환e편한세상,이편한세상,36.90125455,127.1315899
100,16,직산부영아파트,직산부영 A,36.89329797,127.1371657
100,17,삼은6리,삼 은 6 리,36.88494247,127.1431835
100,18,직산사거리,직산사거리,36.87592133,127.1465491
100,19,직산역입구,직산역입구,36.87152298,127.1478441
100,20,신당동,신  당  동,36.8645698,127.1499318
100,21,농수산물도매시장,농수산시장,36.86149465,127.1509508
100,22,천안상업고등학교(e편한세상천안부성아파트),천안상고,36.856378,127.1533774
100,23,공주대공과대학,공주대공대,36.84916294,127.1552191
100,24,부성1동행정복지센터,부 성 1 동,36.84286627,127.1528757
100,25,두정역마을,두정역마을,36.8370013,127.1512957
100,26,두정역 푸르지오, 푸르지오 ,36.83357217,127.151547
100,27,두정역입구,두정역입구,36.83139281,127.1518104
100,28,이안아파트 코아루아파트,이안아파트,36.82884583,127.1522152
100,29,역말오거리,역말오거리,36.82691798,127.1527124
100,30,신부우방아파트,신부우방 A,36.82342295,127.1526374
100,31,신부청광아파트,신부청광 A,36.82162686,127.1521151
100,32,방죽안오거리,방 죽 안 5,36.817435,127.1511525
100,33,복자여자중고등학교,복자여중고,36.815121,127.1499161
100,34,삼도상가, 삼도상가,36.8120581,127.1488145
100,35,천안역,천  안  역,36.80882941,127.1490063
100,36,동남구보건소,동남구보건,36.80731404,127.1515393
100,37,버들육거리,버들육거리,36.8055523,127.1522197
100,38,청과시장, 청과시장,36.80334529,127.1526817
100,39,농협원성점,농협원성점,36.79952316,127.1533738
100,40,우성VIP 아파트,우성 VIP A,36.79842431,127.1562394
100,41,천안여중입구,천안여중,36.7999936,127.1593035
100,42,원성극동아파트,원성극동 A,36.80257013,127.1590813
100,43,교보사거리,교보사거리,36.80472992,127.1589439
100,44,교보생명,교보생명,36.80735799,127.1587324
100,45,중앙고등학교,중앙고교,36.81141632,127.1584774
100,46,신부경남아파트,신부경남A,36.81559628,127.1583541
101,1,천안시청, 천안시청 ,36.81607966,127.1145045
101,2,백석11단지,백석11단지,36.82016488,127.117591
101,3,백석아이파크2차아파트,아이파크2,36.82446579,127.1187901
101,4,백석이수아파트입구,백석이수 A,36.8301348,127.1163021
101,5,산업단지공단입구, 산업단지 ,36.83347627,127.1164057
101,6,번영로가구타운, 가구타운,36.84624629,127.1227507
101,7,2공단입구,2공단 입구,36.85160962,127.1262524
101,8,서북경찰서,서북경찰서,36.85780395,127.1361831
101,9,원네스아파트,원네스A,36.8592254,127.1350561
101,10,업성고교, 업성고교 ,36.8599179,127.1377531
101,11,업성초교, 업성초교 ,36.85968278,127.142009
101,12,서북경찰서,서북경찰서,36.85713795,127.1380607
101,13,업성초등학교, 업성초교,36.85853298,127.1411357
101,14,신당동,신  당  동,36.86462295,127.1501541
101,15,직산역입구,직산역입구,36.87085795,127.1482857
101,16,직산읍행정복지센터,직산읍센터,36.87689505,127.1497422
101,17,서북구청, 서북구청 ,36.87789672,127.1540452
101,18,직산한도아파트,직산한도 A,36.87970461,127.1539907
101,19,직산메르디앙아파트,메르디앙,36.8820466,127.15461
101,20,충남테크노파크,테크노파크,36.886999,127.157575
101,21,충남테크노파크 번영관,충남테크노파크,36.8884132,127.1601253
101,22,남산리 대덕가스,남  산  리,36.89277796,127.1631124
101,23,군서2리,군 서 2 리,36.8977867,127.1649583
101,24,군동2리,군  동  리,36.9004204,127.1638636
101,25,군서1리,군 서 1 리,36.89972465,127.1587024
101,26,성월사입구,성월사입구,36.8993782,127.1504026
101,27,포스코SPS,포스코SPS,36.8988152,127.1468841
101,28,직산청호아파트,직산청호 A,36.89829465,127.1430707
101,29,직산부영아파트,직산부영 A,36.8949313,127.1392674
101,30,성환부영아파트,성환부영 A,36.90360912,127.1360201
101,31,천안배원예농협,천안배농협,36.9117363,127.1336756
101,32,삼풍아파트,삼풍아파트,36.91157628,127.1309941
101,33,골드아파트,골드아파트,36.91327465,127.1283674
101,34,성환역,성  환  역,36.91556296,127.1281707
101,35,성신초등학교,성신초교,36.91718145,127.1280682
101,36,성환10리,성 환 10리,36.92048793,127.1289997
101,37,성환4리,성 환 4 리,36.92068829,127.1338026
101,38,성환리(성환터미널),성환터미널,36.9167153,127.1325999
101,1,성환리(성환터미널),성환터미널,36.9167153,127.1325999
101,2,삼풍아파트,삼풍아파트,36.91229961,127.1305841
101,3,중앙아파트,중앙아파트,36.91143577,127.1309953
101,4,천안배원예농협,천안배농협,36.9115648,127.1335866
101,5,성환부영아파트,성환부영 A,36.90330791,127.1358145
101,6,직산부영아파트,직산부영 A,36.89466796,127.1389741
101,7,직산청호아파트,직산청호 A,36.89847207,127.1436686
101,8,포스코SPS,포스코SPS,36.8987987,127.1473837
101,9,성월사입구,성월사입구,36.8992112,127.1503135
101,10,군서1리,군 서 1 리,36.8995938,127.1585133
101,11,군동2리,군  동  리,36.9003615,127.1637572
101,12,군서2리,군 서 2 리,36.8977053,127.1648576
101,13,남산리(대덕가스),남  산  리,36.8928186,127.1629822
101,14,충남테크노파크,테크노파크,36.8876778,127.1582993
101,15,직산메르디앙아파트,메르디앙,36.8830207,127.1547964
101,16,한도아파트,한도아파트,36.8794462,127.1538003
101,17,서북구청, 서북구청,36.87742966,127.1534757
101,18,직산읍행정복지센터,직산읍센터,36.87710178,127.1496331
101,19,직산사거리,직산사거리,36.87592133,127.1465491
101,20,직산역입구,직산역입구,36.87152298,127.1478441
101,21,신당동,신  당  동,36.8645698,127.1499318
101,22,업성초교, 업성초교 ,36.8599339,127.1415616
101,23,업성고교, 업성고교 ,36.8600126,127.1377863
101,24,원네스아파트,원네스A,36.8593736,127.1348759
101,25,서북경찰서,서북경찰서,36.8568163,127.1365157
101,26,번영로공구상가, 공구상가 ,36.85480799,127.1318474
101,27,2공단입구,2공단 입구,36.8506213,127.1247657
101,28,번영로가구타운, 가구타운 ,36.84634299,127.1224057
101,29,삼성SDI,삼성 SDI,36.8411823,127.1196867
101,30,산업단지공단입구,산업공단,36.83443465,127.1164808
101,31,백석이수아파트입구, 백석이수 ,36.82992526,127.1162015
101,32,백석아이파크2차아파트,아이파크2,36.8244789,127.1185045
101,33,백석11단지,백석11단지,36.82000963,127.1173524
101,34,천안시청, 천안시청 ,36.81625965,127.1145991
103,1,천안시청, 천안시청 ,36.81607966,127.1145045
103,2,백석11단지,백석11단지,36.82016488,127.117591
103,3,백석아이파크2차아파트,아이파크2,36.82446579,127.1187901
103,4,백석이수아파트입구,백석이수 A,36.8301348,127.1163021
103,5,산업단지공단입구, 산업단지 ,36.83347627,127.1164057
103,6,번영로가구타운, 가구타운,36.84624629,127.1227507
103,7,2공단입구,2공단 입구,36.85160962,127.1262524
103,8,서북경찰서,서북경찰서,36.85713795,127.1380607
103,9,업성초등학교, 업성초교,36.85853298,127.1411357
103,10,신당동,신  당  동,36.86462295,127.1501541
103,11,직산역입구,직산역입구,36.87085795,127.1482857
103,12,직산읍행정복지센터,직산읍센터,36.87689505,127.1497422
103,13,서북구청, 서북구청 ,36.87789672,127.1540452
103,14,직산한도아파트,직산한도 A,36.87970461,127.1539907
103,15,직산메르디앙아파트,메르디앙,36.8820466,127.15461
103,16,충남테크노파크,테크노파크,36.886999,127.157575
103,17,충남테크노파크 번영관,충남테크노파크,36.8884132,127.1601253
103,18,남산리 대덕가스,남  산  리,36.89277796,127.1631124
103,19,군서2리,군 서 2 리,36.8977867,127.1649583
103,20,군동2리,군  동  리,36.9004204,127.1638636
103,21,군서1리,군 서 1 리,36.89972465,127.1587024
103,22,성월사입구,성월사입구,36.8993782,127.1504026
103,23,포스코SPS,포스코SPS,36.8988152,127.1468841
103,24,직산청호아파트,직산청호 A,36.89829465,127.1430707
103,25,직산부영아파트,직산부영 A,36.8949313,127.1392674
103,26,시름세삼거리,시  름  세,36.89399631,127.1359124
103,27,상덕2리,상덕2리,36.8917513,127.1273441
103,28,상덕2리,상덕2,36.89163819,127.127435
103,29,시름세삼거리,시  름  세,36.89378995,127.1357527
103,30,성환부영아파트,성환부영 A,36.90360912,127.1360201
103,31,천안배원예농협,천안배농협,36.9117363,127.1336756
103,32,삼풍아파트,삼풍아파트,36.91157628,127.1309941
103,33,골드아파트,골드아파트,36.91327465,127.1283674
103,34,성환역,성  환  역,36.91556296,127.1281707
103,35,성신초등학교,성신초교,36.91718145,127.1280682
103,36,성환10리,성 환 10리,36.92048793,127.1289997
103,37,성환4리,성 환 4 리,36.92068829,127.1338026
103,38,성환리(성환터미널),성환터미널,36.9167153,127.1325999
103,1,성환리(성환터미널),성환터미널,36.9167153,127.1325999
103,2,삼풍아파트,삼풍아파트,36.91229961,127.1305841
103,3,중앙아파트,중앙아파트,36.91143577,127.1309953
103,4,천안배원예농협,천안배농협,36.9115648,127.1335866
103,5,성환부영아파트,성환부영 A,36.90330791,127.1358145
103,6,시름세삼거리,시  름  세,36.89399631,127.1359124
103,7,상덕2리,상덕2리,36.8917513,127.1273441
103,8,상덕2리,상덕2,36.89163819,127.127435
103,9,시름세삼거리,시  름  세,36.89378995,127.1357527
103,10,직산부영아파트,직산부영 A,36.89466796,127.1389741
103,11,직산청호아파트,직산청호 A,36.89847207,127.1436686
103,12,포스코SPS,포스코SPS,36.8987987,127.1473837
103,13,성월사입구,성월사입구,36.8992112,127.1503135
103,14,군서1리,군 서 1 리,36.8995938,127.1585133
103,15,군동2리,군  동  리,36.9003615,127.1637572
103,16,군서2리,군 서 2 리,36.8977053,127.1648576
103,17,남산리(대덕가스),남  산  리,36.8928186,127.1629822
103,18,충남테크노파크,테크노파크,36.8876778,127.1582993
103,19,직산메르디앙아파트,메르디앙,36.8830207,127.1547964
103,20,한도아파트,한도아파트,36.8794462,127.1538003
103,21,서북구청, 서북구청,36.87742966,127.1534757
103,22,직산읍행정복지센터,직산읍센터,36.87710178,127.1496331
103,23,직산사거리,직산사거리,36.87592133,127.1465491
103,24,직산역입구,직산역입구,36.87152298,127.1478441
103,25,신당동,신  당  동,36.8645698,127.1499318
103,26,업성동입구,업성동입구,36.85948462,127.1425774
103,27,서북경찰서,서북경찰서,36.8568163,127.1365157
103,28,번영로공구상가, 공구상가 ,36.85480799,127.1318474
103,29,2공단입구,2공단 입구,36.8506213,127.1247657
103,30,번영로가구타운, 가구타운 ,36.84634299,127.1224057
103,31,삼성SDI,삼성 SDI,36.8411823,127.1196867
103,32,산업단지공단입구,산업공단,36.83443465,127.1164808
103,33,백석이수아파트입구, 백석이수 ,36.82992526,127.1162015
103,34,백석아이파크2차아파트,아이파크2,36.8244789,127.1185045
103,35,백석11단지,백석11단지,36.82000963,127.1173524
103,36,천안시청, 천안시청 ,36.81625965,127.1145991
110,1,신부경남아파트,신부경남A,36.8147815,127.1581179
110,2,천안중학교,천안중학교,36.81130964,127.1582674
110,3,교보생명, 교보생명,36.80798399,127.1584761
110,4,교보사거리,교보사거리,36.80552772,127.1586705
110,5,원성극동아파트,원성극동 A,36.80285964,127.1589074
110,6,천안여중입구,천안여중앞,36.80049222,127.1590016
110,7,우성VIP 아파트,우성 VIP A,36.7985872,127.1564345
110,8,농협원성점,농협원성점,36.79967502,127.1535368
110,9,청과시장,청과시장,36.80328294,127.1528607
110,10,버들육거리,버들육거리,36.8054539,127.1524533
110,11,동남구보건소,동남보건소,36.8083113,127.1505244
110,12,천안역,천  안  역,36.80911797,127.1488424
110,13,삼도상가, 삼도상가,36.8116185,127.148923
110,14,복자여자중고등학교,복자여중고,36.815312,127.1502101
110,15,방죽안오거리,방 죽 안 5,36.8175776,127.1514936
110,16,신부청광아파트,신부청광 A,36.82101139,127.1521933
110,17,동아태조아파트,동아태조 A,36.8227316,127.1526522
110,18,역말오거리,역말오거리,36.82615796,127.1530874
110,19,이안아파트 코아루아파트,이안아파트,36.82901129,127.1525124
110,20,두정역입구,두정역입구,36.83254631,127.1519224
110,21,두정역마을,두정역마을,36.8358068,127.1517227
110,22,부성1동행정복지센터,부 성 1 동,36.84380965,127.1541108
110,23,공주대공과대학,공주대공대,36.8511805,127.155496
110,24,천안상업고등학교(e편한세상천안부성아파트),천안상고,36.85753461,127.1530941
110,25,"메가도매센터, 농수산물도매시장",농수산시장,36.86175799,127.1512024
110,26,신당동,신  당  동,36.86462295,127.1501541
110,27,직산역입구,직산역입구,36.87085795,127.1482857
110,28,직산사거리,직산사거리,36.877409,127.146589
110,29,직산농협산지유통센터,직산농협센터,36.8830271,127.144754
110,30,거리막,거  리  막,36.88611795,127.1427591
110,31,직산부영아파트,직산부영 A,36.89320774,127.1376068
110,32,성환부영아파트,성환부영 A,36.90360912,127.1360201
110,33,천안배원예농협,천안배농협,36.9117363,127.1336756
110,34,삼풍아파트,삼풍아파트,36.91157628,127.1309941
110,35,삼풍아파트,삼풍아파트,36.91246987,127.1309113
110,36,성환리(성환터미널),성환터미널,36.9167153,127.1325999
110,37,성환4리,성 환 4 리,36.920839,127.133226
110,38,성환10리,성 환 10리,36.92068658,127.1288043
110,39,성신초등학교, 성신초교,36.91765545,127.1278602
110,40,성환역,성  환  역,36.91571532,127.1279794
110,41,골드아파트,골드아파트,36.91236211,127.1282185
110,42,중앙아파트,중앙아파트,36.91143577,127.1309953
110,43,천안배원예농협,천안배농협,36.9115648,127.1335866
110,44,성환문화회관,문화회관,36.91172292,127.1367313
110,45,남서울대학교, 남서울대,36.91168497,127.1428309
110,46,남서울대학교 주차장, 남서울대,36.9105701,127.1426169
110,1,남서울대학교 주차장, 남서울대,36.9105701,127.1426169
110,2,남서울대학교, 남서울대,36.91186903,127.1420998
110,3,성환문화회관, 문화회관 ,36.91185463,127.1366524
110,4,천안배원예농협,천안배농협,36.9117363,127.1336756
110,5,삼풍아파트,삼풍아파트,36.91157628,127.1309941
110,6,골드아파트,골드아파트,36.91327465,127.1283674
110,7,성환역,성  환  역,36.91556296,127.1281707
110,8,성신초등학교,성신초교,36.91718145,127.1280682
110,9,성환10리,성 환 10리,36.92048793,127.1289997
110,10,성환4리,성 환 4 리,36.92068829,127.1338026
110,11,성환터미널,성환터미널,36.91729105,127.1327387
110,12,삼풍아파트,삼풍아파트,36.91229961,127.1305841
110,13,중앙아파트,중앙아파트,36.91143577,127.1309953
110,14,천안배원예농협,천안배농협,36.9115648,127.1335866
110,15,성환부영아파트,성환부영 A,36.90330791,127.1358145
110,16,직산부영아파트,직산부영 A,36.89329797,127.1371657
110,17,삼은6리,삼 은 6 리,36.88494247,127.1431835
110,18,직산사거리,직산사거리,36.87592133,127.1465491
110,19,직산역입구,직산역입구,36.87152298,127.1478441
110,20,신당동,신  당  동,36.8645698,127.1499318
110,21,농수산물도매시장,농수산시장,36.86149465,127.1509508
110,22,천안상업고등학교(e편한세상천안부성아파트),천안상고,36.856378,127.1533774
110,23,공주대공과대학,공주대공대,36.84916294,127.1552191
110,24,부성1동행정복지센터,부 성 1 동,36.84286627,127.1528757
110,25,두정역마을,두정역마을,36.8370013,127.1512957
110,26,두정역 푸르지오, 푸르지오 ,36.83357217,127.151547
110,27,두정역입구,두정역입구,36.83139281,127.1518104
110,28,이안아파트 코아루아파트,이안아파트,36.82884583,127.1522152
110,29,역말오거리,역말오거리,36.82691798,127.1527124
110,30,신부우방아파트,신부우방 A,36.82342295,127.1526374
110,31,신부청광아파트,신부청광 A,36.82162686,127.1521151
110,32,방죽안오거리,방 죽 안 5,36.817435,127.1511525
110,33,복자여자중고등학교,복자여중고,36.815121,127.1499161
110,34,삼도상가, 삼도상가,36.8120581,127.1488145
110,35,천안역,천  안  역,36.80882941,127.1490063
110,36,동남구보건소,동남구보건,36.80731404,127.1515393
110,37,버들육거리,버들육거리,36.8055523,127.1522197
110,38,청과시장, 청과시장,36.80334529,127.1526817
110,39,농협원성점,농협원성점,36.79952316,127.1533738
110,40,우성VIP 아파트,우성 VIP A,36.79842431,127.1562394
110,41,천안여중입구,천안여중,36.7999936,127.1593035
110,42,원성극동아파트,원성극동 A,36.80257013,127.1590813
110,43,교보사거리,교보사거리,36.80472992,127.1589439
110,44,교보생명,교보생명,36.80735799,127.1587324
110,45,중앙고등학교,중앙고교,36.81141632,127.1584774
110,46,신부경남아파트,신부경남A,36.81559628,127.1583541
380,1,종합터미널,종합터미널,36.8190148,127.1565574
380,2,방죽안오거리,방 죽 안 5,36.817435,127.1511525
380,3,복자여자중고등학교,복자여중고,36.815121,127.1499161
380,4,삼도상가, 삼도상가,36.8120581,127.1488145
380,5,천안역 동부광장,천안역동부,36.8083388,127.147642
380,6,온양나드리,온양나드리,36.8033957,127.1459932
380,7,남산중앙시장,중앙시장,36.8005047,127.1487406
380,8,영성로,영  성  로,36.7984753,127.1508314
380,9,남부오거리,남부오거리,36.7982139,127.1517372
380,10,우성VIP 아파트,우성 VIP A,36.79842431,127.1562394
380,11,충무로사거리, 충무로 4,36.79862631,127.1606308
380,12,홈플러스, 홈플러스 ,36.79874294,127.1634124
380,13,신성미소지움아파트,미소지움 A,36.79226235,127.1645478
380,14,천안동중학교, 천안동중,36.78786298,127.1656891
380,15,천안삼거리공원,삼거리공원,36.7842081,127.1691222
380,16,삼룡동새마을회관,새마을회관,36.7804555,127.1735565
380,17,"천안의료원,고려신학대학원",천안의료원,36.776238,127.1777027
380,18,천안삼거리장례식장,천안삼거리,36.77312583,127.1793202
380,19,응원리,응  원  리,36.7683294,127.1851267
380,20,세광엔리치빌,세광엔리치,36.76802961,127.1892341
380,21,동우아파트입구,동우아파트,36.76786054,127.1976909
380,22,신계초등학교, 신계초교,36.76955151,127.2025965
380,23,충남평생교육원,평생교육원,36.77077632,127.2060374
380,24,이수프라임아파트,이수아파트,36.77292011,127.2093196
380,25,신도2차아파트,신도2차 A,36.77435193,127.2114733
380,26,신도브래뉴1차 아파트,신도브래뉴,36.7759193,127.2172371
380,27,운전리,운  전  리,36.77281298,127.2271674
380,28,연합초원아파트,연합초원 A,36.7709725,127.2298434
380,29,목천IC,목  천  IC,36.77005464,127.2315007
380,30,목천IC,목  천  IC,36.77032796,127.2331657
380,31,동평1리입구,동평1리,36.7718184,127.2343921
380,32,동평1리,동 평 1 리,36.77482295,127.2354241
380,33,독립기념관,독립기념관,36.7780592,127.2307274
380,34,독립기념관 동문,기념관동문,36.78034187,127.2328387
380,35,목천중고등학교,목천중고교,36.78092877,127.2335268
380,36,"목천읍행정복지센터,국립청소년수련원",목  천  읍,36.78423782,127.2356293
380,37,목천농협, 목천농협,36.784418,127.2358572
380,38,동리입구,동리입구,36.7809388,127.2401916
380,39,동평2리,동 평 2 리,36.7770241,127.2423773
380,40,동평3리,동 평 3 리,36.7752194,127.243183
380,41,노루목,노  루  목,36.77117873,127.2478347
380,42,연춘리,연  춘  리,36.7697706,127.2512138
380,43,동천안농협 연춘지점,연춘리농협,36.7703062,127.2530363
380,44,용암리,용  암  리,36.7804418,127.2544831
380,45,용암1리,용 암 1 리,36.78343142,127.2560778
380,46,은석초교, 은석초교,36.78669677,127.2586108
380,47,용암리,용  암  리,36.796016,127.2617529
380,48,용암2리,용 암 2 리,36.79811872,127.2644014
380,49,매송1리,매 송 1 리,36.801156,127.2681968
380,50,매송1리(느러니),매 송 1 리,36.8058637,127.274009
380,51,매송1리(오송정),매 송 1 리,36.81126015,127.2763987
380,52,명덕리,명  덕  리,36.81603035,127.2759674
380,53,동천안농협 북면지점, 북면농협,36.82294342,127.2731992
380,54,오곡리,오  곡  리,36.82483609,127.2757845
380,55,오곡리(종점),오  곡  리,36.82488246,127.2840866
380,56,오곡리(종점),오  곡  리,36.8249956,127.2839921
380,57,오곡리,오  곡  리,36.8249984,127.275747
380,58,북면행정복지센터,북      면,36.82719461,127.2727741
380,59,솔바람가든,솔바람가든,36.83141991,127.2711972
380,60,사담리,사  담  리,36.83526666,127.2684368
380,61,사담2리,사담2리,36.83743713,127.2617143
380,62,보명사,보명사,36.85899318,127.2029659
380,63,양곡리입구(별장골),양곡리입구,36.83931477,127.2696673
380,64,동우교,동  우  교,36.84204306,127.2711762
380,65,새텃말,새  텃  말,36.84685491,127.2739885
380,66,질마제,질  마  제,36.849436,127.2784335
380,67,양곡리(종점),양  곡  리,36.8509596,127.2820141
380,68,양곡리(종점),양  곡  리,36.8510182,127.281975
380,69,질마제,질  마  제,36.8496314,127.2783952
380,70,새텃말,새  텃  말,36.8468777,127.2737483
380,71,동우교,동  우  교,36.8420226,127.2710203
380,72,전곡리,전  곡  리,36.84812383,127.2665189
380,73,전곡리(길마제),전  곡  리,36.85064172,127.266846
380,74,납안리,납  안  리,36.85393799,127.2663707
380,75,납안1리,납 안 1 리,36.8554603,127.2666143
380,76,납안리(주막거리),납  안  리,36.857591,127.2682625
380,77,운용리(군단위),운  용  리,36.8617407,127.2735732
380,78,대평1리(마을회관),대 평 1 리,36.8683172,127.2819629
380,79,대평1리,대 평 1 리,36.87146462,127.2847954
380,80,대평2리(싸리재),대 평 2 리,36.87520265,127.2916163
380,81,곡대(종점),곡      대,36.8793958,127.2943982
380,1,곡대(종점),곡      대,36.8795268,127.2943446
380,2,대평2리(싸리재),대 평 2 리,36.875337,127.2915619
380,3,대평1리,대 평 1 리,36.87131812,127.2843426
380,4,대평1리(마을회관),대 평 1 리,36.86838793,127.2818724
380,5,운용리(군단위),운  용  리,36.8618624,127.2735504
380,6,납안리(주막거리),납  안  리,36.857699,127.2681892
380,7,납안1리,납 안 1 리,36.85545069,127.2664033
380,8,납안리,납  안  리,36.85337826,127.2661915
380,9,전곡리(길마제),전  곡  리,36.85094498,127.2666783
380,10,전곡리,전  곡  리,36.84785517,127.2662247
380,11,동우교,동  우  교,36.84204306,127.2711762
380,12,새텃말,새  텃  말,36.84685491,127.2739885
380,13,질마제,질  마  제,36.849436,127.2784335
380,14,양곡리(종점),양  곡  리,36.8509596,127.2820141
380,15,양곡리(종점),양  곡  리,36.8510182,127.281975
380,16,질마제,질  마  제,36.8496314,127.2783952
380,17,새텃말,새  텃  말,36.8468777,127.2737483
380,18,동우교,동  우  교,36.8420226,127.2710203
380,19,양곡리입구(별장골),양곡리입구,36.83932073,127.2695111
380,20,사담2리,사담2리,36.83743713,127.2617143
380,21,보명사,보명사,36.85899318,127.2029659
380,22,사담리,사  담  리,36.83520747,127.2682739
380,23,솔바람가든,솔바람가든,36.83154801,127.2710348
380,24,북면행정복지센터,북면사무소,36.82708617,127.2726974
380,25,오곡리,오  곡  리,36.82483609,127.2757845
380,26,오곡리(종점),오  곡  리,36.82488246,127.2840866
380,27,오곡리(종점),오  곡  리,36.8249956,127.2839921
380,28,오곡리,오  곡  리,36.8249984,127.275747
380,29,동천안농협 북면지점, 북면농협,36.82297412,127.2729644
380,30,명덕리,명  덕  리,36.81603075,127.2757311
380,31,매송1리(오송정),매 송 1 리,36.81130798,127.2761958
380,32,매송1리(느러니),매 송 1 리,36.80586295,127.2737824
380,33,매송1리,매 송 1 리,36.80127132,127.2681824
380,34,용암2리,용 암 2 리,36.79833299,127.2643524
380,35,용암리,용  암  리,36.79608963,127.2616741
380,36,은석초교, 은석초교,36.78676141,127.2584057
380,37,용암1리,용 암 1 리,36.78352786,127.2558871
380,38,용암리,용  암  리,36.7805227,127.2543909
380,39,동천안농협 연춘지점,연춘리농협,36.7703059,127.2528996
380,40,연춘리,연  춘  리,36.77006964,127.2506941
380,41,노루목,노루목,36.77138629,127.2478124
380,42,동평3리,동 평 3 리,36.77533628,127.2433091
380,43,동평2리,동 평 2 리,36.77700629,127.2425457
380,44,동리,동      리,36.78096123,127.2403408
380,45,"목천읍행정복지센터,국립청소년수련원",목  천  읍,36.78428611,127.2353478
380,46,목천중고등학교,목천중고교,36.7811446,127.2335824
380,47,독립기념관 동문,기념관동문,36.77989207,127.2325413
380,48,독립기념관,독립기념관,36.7780481,127.2306097
380,49,동평1리,동 평 1 리,36.77430796,127.2351107
380,50,목천IC,목  천  IC,36.77051463,127.2330007
380,51,연합초원아파트,연합초원A,36.77067294,127.2306341
380,52,운전리,운  전  리,36.77320132,127.2269024
380,53,신도브래뉴1차아파트,신도1차 A,36.77616048,127.2164147
380,54,신도브래뉴2차아파트,신도2차 A,36.77458129,127.2113791
380,55,농업기술센터,농업기술C,36.77229461,127.2079365
380,56,충남평생교육원,평생교육원,36.7708013,127.2055141
380,57,신계초등학교, 신계초교,36.76964628,127.2022774
380,58,동우아파트입구,동우아파트,36.76803794,127.1975691
380,59,세광엔리치빌, 엔리치빌,36.76821627,127.1890557
380,60,응원리,응  원  리,36.76846963,127.1852108
380,61,천안삼거리장례식장,천안삼거리,36.77375795,127.1793741
380,62,"천안의료원,고려신학대학원",천안의료원,36.7759539,127.1783259
380,63,삼룡동새마을회관,새마을회관,36.78093295,127.1733924
380,64,천안삼거리공원,삼거리공원,36.78402463,127.1697274
380,65,천안동중학교, 천안동중,36.78778703,127.1660115
380,66,신성미소지움아파트,미소지움 A,36.79281465,127.1648808
380,67,홈플러스, 홈플러스 ,36.79891657,127.1637981
380,68,충무로사거리,충무사거리,36.7987691,127.1601093
380,69,우성VIP 아파트,우성 VIP A,36.7985872,127.1564345
380,70,남산축협,남산축협,36.7992067,127.1521362
380,71,천안중앙시장,중앙시장,36.8004711,127.1492519
380,72,온양나드리,온양나드리,36.8032386,127.1462215
380,73,천안역 동부광장,천안역동부,36.8081632,127.1477157
380,74,삼도상가, 삼도상가,36.8116185,127.148923
380,75,복자여자중고등학교,복자여중고,36.815312,127.1502101
380,76,방죽안오거리,방 죽 안 5,36.8175776,127.1514936
380,77,종합터미널,종합터미널,36.8187607,127.1556582
390,1,종합터미널,종합터미널,36.8190148,127.1565574
390,2,방죽안오거리,방 죽 안 5,36.817435,127.1511525
390,3,복자여자중고등학교,복자여중고,36.815121,127.1499161
390,4,삼도상가, 삼도상가,36.8120581,127.1488145
390,5,천안역 동부광장,천안역동부,36.8083388,127.147642
390,6,온양나드리,온양나드리,36.8033957,127.1459932
390,7,남산중앙시장,중앙시장,36.8005047,127.1487406
390,8,영성로,영  성  로,36.7984753,127.1508314
390,9,남부오거리,남부오거리,36.7982139,127.1517372
390,10,우성VIP 아파트,우성 VIP A,36.79842431,127.1562394
390,11,충무로사거리, 충무로 4,36.79862631,127.1606308
390,12,홈플러스, 홈플러스 ,36.79874294,127.1634124
390,13,신성미소지움아파트,미소지움 A,36.79226235,127.1645478
390,14,천안박물관,천안박물관,36.7863024,127.1648077
390,15,원삼거리, 원삼거리,36.7836693,127.1650659
390,16,천안여자고등학교, 천안여고,36.77950419,127.1650802
390,17,선문대(천안),선문대학교,36.7730421,127.1646065
390,18,도리티고개,도리티고개,36.7658773,127.1669045
390,19,LS일렉트릭,L S 일 렉,36.76355961,127.1696757
390,20,부영아파트입구,부영A입구,36.7615774,127.1724646
390,21,막실,막      실,36.7648645,127.1788607
390,22,세광엔리치빌,세광엔리치,36.76802961,127.1892341
390,23,동우아파트입구,동우아파트,36.76786054,127.1976909
390,24,신계초등학교, 신계초교,36.76955151,127.2025965
390,25,충남평생교육원,평생교육원,36.77077632,127.2060374
390,26,이수프라임아파트,이수아파트,36.77292011,127.2093196
390,27,신도2차아파트,신도2차 A,36.77435193,127.2114733
390,28,신도브래뉴1차아파트,신도브래뉴,36.77226367,127.2150672
390,29,신도브래뉴1차 아파트,신도브래뉴,36.7759193,127.2172371
390,30,운전리,운  전  리,36.77281298,127.2271674
390,31,연합초원아파트,연합초원 A,36.7709725,127.2298434
390,32,목천IC,목  천  IC,36.77005464,127.2315007
390,33,목천IC,목  천  IC,36.77032796,127.2331657
390,34,동평1리입구,동평1리,36.7718184,127.2343921
390,35,동평1리,동 평 1 리,36.77482295,127.2354241
390,36,독립기념관,독립기념관,36.7780592,127.2307274
390,37,독립기념관 동문,기념관동문,36.78034187,127.2328387
390,38,목천중고등학교,목천중고교,36.78092877,127.2335268
390,39,"목천읍행정복지센터,국립청소년수련원",목  천  읍,36.78423782,127.2356293
390,40,목천초등학교, 목천초교 ,36.78657672,127.2352726
390,41,신광교회,신광교회,36.78943155,127.2345631
390,42,교촌1리,교 촌 1 리,36.7918116,127.2323528
390,43,희망의마을,희망의마을,36.79690052,127.2320922
390,44,교촌2리,교 촌 2 리,36.80049745,127.229542
390,45,서흥1리(동막),서 흥 1 리,36.8045089,127.2321796
390,46,서흥2리(상용),서 흥 2 리,36.80724624,127.2312018
390,47,덕전1리(용소),덕 전 1 리,36.8086884,127.2251593
390,48,덕전2리(질마재),덕 전 2 리,36.8120577,127.2250195
390,49,덕전2리,덕 전 2 리,36.81621834,127.2252343
390,50,덕전야영장,덕전야영장,36.81929443,127.2247298
390,51,천안시립노인전문병원, 노인병원 ,36.82409944,127.2272869
390,52,송전리,송  전  리,36.82754073,127.2296196
390,53,석천리,석  천  리,36.83096384,127.2331531
390,54,석천리(종점),석      천,36.83680715,127.2404039
390,1,석천리(종점),석      천,36.8368444,127.240209
390,2,석천리,석  천  리,36.83370692,127.235812
390,3,송전리,송  전  리,36.82741279,127.2294597
390,4,천안시립노인전문병원, 노인병원 ,36.824127,127.2271505
390,5,덕전2리,덕 전 2 리,36.81617748,127.2250103
390,6,덕전2리(질마재),덕 전 2 리,36.8117873,127.2250148
390,7,덕전1리(용소),덕 전 1 리,36.80863405,127.2249326
390,8,서흥2리,서 흥 2 리,36.80712078,127.2310853
390,9,서흥1리(동막),서 흥 1 리,36.80451007,127.2320195
390,10,교촌2리,교 촌 2 리,36.8003965,127.2294318
390,11,희망의마을,희망의마을,36.7969045,127.2318704
390,12,교촌1리,교 촌 1 리,36.7917172,127.2322521
390,13,신광교회,신광교회,36.7894234,127.2344513
390,14,목천초등학교, 목천초교 ,36.7869227,127.234841
390,15,"목천읍행정복지센터,국립청소년수련원",목  천  읍,36.78428611,127.2353478
390,16,목천중고등학교,목천중고교,36.7811446,127.2335824
390,17,독립기념관 동문,기념관동문,36.77989207,127.2325413
390,18,독립기념관,독립기념관,36.7780481,127.2306097
390,19,동평1리,동 평 1 리,36.77430796,127.2351107
390,20,목천IC,목  천  IC,36.77051463,127.2330007
390,21,연합초원아파트,연합초원A,36.77067294,127.2306341
390,22,운전리,운  전  리,36.77320132,127.2269024
390,23,신도브래뉴1차아파트,신도브래뉴,36.77226367,127.2150672
390,24,신도브래뉴1차아파트,신도1차 A,36.77616048,127.2164147
390,25,신도브래뉴2차아파트,신도2차 A,36.77458129,127.2113791
390,26,농업기술센터,농업기술C,36.77229461,127.2079365
390,27,충남평생교육원,평생교육원,36.7708013,127.2055141
390,28,신계초등학교, 신계초교,36.76964628,127.2022774
390,29,동우아파트입구,동우아파트,36.76803794,127.1975691
390,30,세광엔리치빌, 엔리치빌,36.76821627,127.1890557
390,31,응원리,응  원  리,36.7649545,127.1787875
390,32,부영아파트입구,부영A입구,36.76162963,127.1722707
390,33,LS일렉트릭,L S 일 렉,36.76387299,127.1695358
390,34,도리티고개,도리티고개,36.76701127,127.1664474
390,35,선문대(천안),선문대학교,36.77294961,127.1649224
390,36,천안여자고등학교, 천안여고,36.78047633,127.1654907
390,37,원삼거리,원삼거리,36.7828663,127.1655307
390,38,천안박물관,천안박물관,36.7869163,127.1650874
390,39,신성미소지움아파트,미소지움 A,36.79281465,127.1648808
390,40,홈플러스, 홈플러스 ,36.79891657,127.1637981
390,41,충무로사거리,충무사거리,36.7987691,127.1601093
390,42,우성VIP 아파트,우성 VIP A,36.7985872,127.1564345
390,43,남산축협,남산축협,36.7992067,127.1521362
390,44,천안중앙시장,중앙시장,36.8004711,127.1492519
390,45,온양나드리,온양나드리,36.8032386,127.1462215
390,46,천안역 동부광장,천안역동부,36.8081632,127.1477157
390,47,삼도상가, 삼도상가,36.8116185,127.148923
390,48,복자여자중고등학교,복자여중고,36.815312,127.1502101
390,49,방죽안오거리,방 죽 안 5,36.8175776,127.1514936
390,50,종합터미널,종합터미널,36.81880476,127.1562637
400,1,종합터미널,종합터미널,36.8190148,127.1565574
400,2,방죽안오거리,방 죽 안 5,36.817435,127.1511525
400,3,복자여자중고등학교,복자여중고,36.815121,127.1499161
400,4,삼도상가, 삼도상가,36.8120581,127.1488145
400,5,천안역 동부광장,천안역동부,36.8083388,127.147642
400,6,온양나드리,온양나드리,36.8033957,127.1459932
400,7,남산중앙시장,중앙시장,36.8005047,127.1487406
400,8,영성로,영  성  로,36.7984753,127.1508314
400,9,남부오거리,남부오거리,36.7982139,127.1517372
400,10,우성VIP 아파트,우성 VIP A,36.79842431,127.1562394
400,11,삼룡교,삼  룡  교,36.7978992,127.1591872
400,12,구성초등학교, 구성초교,36.79359597,127.1603211
400,13,구성신성아파트,구성신성 A,36.79132701,127.1624531
400,14,천안동중학교, 천안동중,36.78786298,127.1656891
400,15,천안삼거리공원,삼거리공원,36.7842081,127.1691222
400,16,삼룡동새마을회관,새마을회관,36.7804555,127.1735565
400,17,"천안의료원,고려신학대학원",천안의료원,36.776238,127.1777027
400,18,천안삼거리장례식장,천안삼거리,36.77312583,127.1793202
400,19,응원리,응  원  리,36.7683294,127.1851267
400,20,세광엔리치빌,세광엔리치,36.76802961,127.1892341
400,21,동우아파트입구,동우아파트,36.76786054,127.1976909
400,22,신계초등학교, 신계초교,36.76955151,127.2025965
400,23,충남평생교육원,평생교육원,36.77077632,127.2060374
400,24,이수프라임아파트,이수아파트,36.77292011,127.2093196
400,25,신도2차아파트,신도2차 A,36.77435193,127.2114733
400,26,신도브래뉴1차 아파트,신도브래뉴,36.7759193,127.2172371
400,27,운전리,운  전  리,36.77281298,127.2271674
400,28,연합초원아파트,연합초원 A,36.7709725,127.2298434
400,29,목천IC,목  천  IC,36.77005464,127.2315007
400,30,목천IC,목  천  IC,36.77032796,127.2331657
400,31,동평1리입구,동평1리,36.7718184,127.2343921
400,32,동평1리,동 평 1 리,36.77482295,127.2354241
400,33,독립기념관,독립기념관,36.7780592,127.2307274
400,34,독립기념관 동문,기념관동문,36.78034187,127.2328387
400,35,목천중고등학교,목천중고교,36.78092877,127.2335268
400,36,"목천읍행정복지센터,국립청소년수련원",목  천  읍,36.78423782,127.2356293
400,37,동리입구,동리입구,36.7809388,127.2401916
400,38,동평2리,동 평 2 리,36.7770241,127.2423773
400,39,동평3리,동 평 3 리,36.7752194,127.243183
400,40,노루목,노  루  목,36.77117873,127.2478347
400,41,연춘리,연  춘  리,36.7697706,127.2512138
400,42,상동리,상  동  리,36.770223,127.2603872
400,43,상동2리,상 동 2 리,36.770277,127.2634809
400,44,상동중앙아파트(문답안),상동중앙 A,36.77034156,127.2695447
400,45,가전4리(문다라니),가 전 4 리,36.77025933,127.2744613
400,46,통일공업사,통일공업사,36.76882643,127.279891
400,47,코리아텍,코리아텍,36.76768641,127.2833864
400,48,신한아파트,신한아파트,36.76561875,127.2883788
400,49,"관세인재개발원,해양경찰연구센터",관세인제개발원,36.76453544,127.2949705
400,50,병천우체국,병천우체국,36.76295588,127.2975873
400,51,병천3리,병천3리,36.76215636,127.3007552
400,1,병천3리,병천3리,36.76227454,127.3000013
400,2,병천시장, 병천시장 ,36.7612863,127.2988741
400,3,모드니에아파트,모드니에A,36.75901465,127.2969358
400,4,병천1리,병 천 1 리,36.7607438,127.2945372
400,5,"관세인재개발원,해양경찰연구센터",관세인재개발원,36.7647865,127.2917085
400,6,신한아파트,신한아파트,36.76581963,127.2878391
400,7,코리아텍,코리아텍,36.76765462,127.2839524
400,8,칠성섬유, 칠성섬유,36.76911298,127.2796124
400,9,가전4리(문다라니),가 전 4 리,36.77044965,127.2742641
400,10,상동중앙아파트(문답안),상동중앙 A,36.77054225,127.2691093
400,11,상동2리,상 동 2 리,36.770451,127.2630803
400,12,상동리,상  동  리,36.7703931,127.2597928
400,13,연춘리,연  춘  리,36.77006964,127.2506941
400,14,노루목,노루목,36.77138629,127.2478124
400,15,동평3리,동 평 3 리,36.77533628,127.2433091
400,16,동평2리,동 평 2 리,36.77700629,127.2425457
400,17,동리,동      리,36.78096123,127.2403408
400,18,"목천읍행정복지센터,국립청소년수련원",목  천  읍,36.78428611,127.2353478
400,19,목천중고등학교,목천중고교,36.7811446,127.2335824
400,20,독립기념관 동문,기념관동문,36.77989207,127.2325413
400,21,독립기념관,독립기념관,36.7780481,127.2306097
400,22,동평1리,동 평 1 리,36.77430796,127.2351107
400,23,목천IC,목  천  IC,36.77051463,127.2330007
400,24,연합초원아파트,연합초원A,36.77067294,127.2306341
400,25,운전리,운  전  리,36.77320132,127.2269024
400,26,신도브래뉴1차아파트,신도1차 A,36.77616048,127.2164147
400,27,신도브래뉴2차아파트,신도2차 A,36.77458129,127.2113791
400,28,농업기술센터,농업기술C,36.77229461,127.2079365
400,29,충남평생교육원,평생교육원,36.7708013,127.2055141
400,30,신계초등학교, 신계초교,36.76964628,127.2022774
400,31,동우아파트입구,동우아파트,36.76803794,127.1975691
400,32,세광엔리치빌, 엔리치빌,36.76821627,127.1890557
400,33,응원리,응  원  리,36.76846963,127.1852108
400,34,천안삼거리장례식장,천안삼거리,36.77375795,127.1793741
400,35,"천안의료원,고려신학대학원",천안의료원,36.7759539,127.1783259
400,36,삼룡동새마을회관,새마을회관,36.78093295,127.1733924
400,37,천안삼거리공원,삼거리공원,36.78402463,127.1697274
400,38,천안동중학교, 천안동중,36.78778703,127.1660115
400,39,구성신성아파트,구성신성A,36.7916663,127.1625191
400,40,구성초등학교, 구성초교,36.79378962,127.1603407
400,41,구성동중앙신협,구성동신협,36.7968004,127.1595407
400,42,우성VIP 아파트,우성 VIP A,36.7985872,127.1564345
400,43,남산축협,남산축협,36.7992067,127.1521362
400,44,천안중앙시장,중앙시장,36.8004711,127.1492519
400,45,온양나드리,온양나드리,36.8032386,127.1462215
400,46,천안역 동부광장,천안역동부,36.8081632,127.1477157
400,47,삼도상가, 삼도상가,36.8116185,127.148923
400,48,복자여자중고등학교,복자여중고,36.815312,127.1502101
400,49,방죽안오거리,방 죽 안 5,36.8175776,127.1514936
400,50,종합터미널,종합터미널,36.81880476,127.1562637
701,1,안서동(문암),안  서  동,36.8444928,127.186893
701,2,백석대 정문,백석대정문,36.8416896,127.1815669
701,3,백석대학교,백석대학교,36.83989799,127.1793791
701,4,금호어울림아파트,금호어울림,36.83864131,127.1767157
701,5,상명대학교,상명대학교,36.8330796,127.1730008
701,6,천안톨게이트, 천안 TG,36.82835666,127.1676106
701,7,도솔광장,도솔광장,36.8224033,127.162808
701,8,대림한숲아파트,대림한숲 A,36.81993963,127.1597741
701,9,종합터미널,종합터미널,36.8190148,127.1565574
701,10,방죽안오거리,방 죽 안 5,36.817435,127.1511525
701,11,복자여자중고등학교,복자여중고,36.815121,127.1499161
701,12,삼도상가, 삼도상가,36.8120581,127.1488145
701,13,천안역 동부광장,천안역동부,36.8083388,127.147642
701,14,온양나드리,온양나드리,36.8033957,127.1459932
701,15,남산중앙시장,중앙시장,36.8005047,127.1487406
701,16,영성로,영  성  로,36.7984753,127.1508314
701,17,남부오거리,남부오거리,36.7982139,127.1517372
701,18,우성VIP 아파트,우성 VIP A,36.79842431,127.1562394
701,19,삼룡교,삼  룡  교,36.7978992,127.1591872
701,20,구성초등학교, 구성초교,36.79359597,127.1603211
701,21,구성신성아파트,구성신성 A,36.79132701,127.1624531
701,22,천안박물관,천안박물관,36.7863024,127.1648077
701,23,원삼거리, 원삼거리,36.7836693,127.1650659
701,24,천안여자고등학교, 천안여고,36.77950419,127.1650802
701,25,선문대(천안),선문대학교,36.7730421,127.1646065
701,26,도리티고개,도리티고개,36.7658773,127.1669045
701,27,삼성1리,삼 성 1 리,36.75852631,127.1714057
701,28,삼성리,삼  성  리,36.75471466,127.1709824
701,29,도장리,도  장  리,36.7456878,127.1704363
701,30,영흥산업, 영흥산업,36.73805241,127.1719707
701,31,소사리,소  사  리,36.7352547,127.1716401
701,32,대곡리,대곡,36.7298387,127.1667903
701,33,소정육교(맹골),소정육교 맹골,36.7271343,127.1619987
701,34,소정2리(넉바위),소 정 2 리,36.7157285,127.1503586
701,35,동산산업,동산산업,36.710332,127.147259
701,36,운당2리,운당 2리,36.7057756,127.1489661
701,37,운당1리,운당1리,36.6979306,127.1525606
701,38,행정리,행  정  리,36.6885967,127.1575524
701,39,유천리,유  천  리,36.6883326,127.161675
701,40,유천리(어천),유  천  리,36.6879,127.16612
701,41,유천리,유  천  리,36.6862,127.16905
701,42,유천2리,유천2,36.68278,127.17728
701,43,민석아파트입구,민석A입구,36.6811,127.18134
701,44,덕고개,덕  고  개,36.68032,127.19191
701,45,전의중학교,전의중학교,36.68024,127.19736
701,46,전의역,전의역,36.67933,127.20402
701,47,재동아파트,재동아파트,36.6794,127.2066
701,48,전의읍내리(종점),전      의,36.6789191,127.2082706
701,1,전의읍내리(종점),전의읍내리,36.6790322,127.208466
701,2,재동아파트,재동아파트,36.67954,127.20667
701,3,전의역,전의역,36.67946,127.20405
701,4,전의역,전  의  역,36.67953,127.2036
701,5,전의중학교,전의중학교,36.68047,127.19682
701,6,덕고개,덕  고  개,36.68046,127.19186
701,7,민석아파트입구,민석 A입구,36.68099,127.18197
701,8,유천2리,유천2리,36.68292,127.17727
701,9,유천리,유  천  리,36.68628,127.16919
701,10,유천리(어천),유  천  리,36.68803,127.16612
701,11,유천리,유  천  리,36.68844086,127.1616745
701,12,행정리,행  정  리,36.6887542,127.1574677
701,13,운당1리,운당1리,36.69865,127.15205
701,14,운당2리,운당2리,36.7058276,127.1497944
701,15,동산산업,동산산업,36.710519,127.147184
701,16,소정2리(넉바위),소 정 2 리,36.71608574,127.1509366
701,17,소정육교,소정육교,36.72718,127.16312
701,18,대곡리,대곡리,36.7296,127.16673
701,19,소사리,소  사  리,36.73509962,127.1718074
701,20,영흥산업, 영흥산업,36.73791311,127.1721981
701,21,도장리,도  장  리,36.74560129,127.1707074
701,22,삼성리,삼  성  리,36.7536301,127.1712413
701,23,삼성1리,삼 성 1 리,36.75842465,127.1716491
701,24,도리티고개,도리티고개,36.76701127,127.1664474
701,25,선문대(천안),선문대학교,36.77294961,127.1649224
701,26,천안여자고등학교, 천안여고,36.78047633,127.1654907
701,27,원삼거리,원삼거리,36.7828663,127.1655307
701,28,천안박물관,천안박물관,36.7869163,127.1650874
701,29,구성신성아파트,구성신성A,36.7916663,127.1625191
701,30,구성초등학교, 구성초교,36.79378962,127.1603407
701,31,구성동중앙신협,구성동신협,36.7968004,127.1595407
701,32,우성VIP 아파트,우성 VIP A,36.7985872,127.1564345
701,33,남산축협,남산축협,36.7992067,127.1521362
701,34,천안중앙시장,중앙시장,36.8004711,127.1492519
701,35,온양나드리,온양나드리,36.8032386,127.1462215
701,36,천안역 동부광장,천안역동부,36.8081632,127.1477157
701,37,삼도상가, 삼도상가,36.8116185,127.148923
701,38,복자여자중고등학교,복자여중고,36.815312,127.1502101
701,39,방죽안오거리,방 죽 안 5,36.8175776,127.1514936
701,40,종합터미널,종합터미널,36.8187607,127.1556582
701,41,대림한숲아파트,대림한숲 A,36.8193751,127.1595809
701,42,천안톨게이트,천안 TG,36.82824318,127.1677016
701,43,상명대학교,상명대학교,36.83428295,127.1739541
701,44,단국대치대병원, 치대병원 ,36.83703799,127.1743541
701,45,금호어울림아파트,금호어울림,36.83877783,127.1777027
701,46,백석문화대,백석대학교,36.83963095,127.1792607
701,47,백석대정문,백석대정문,36.8416132,127.1816569
701,48,안서동(문암),안  서  동,36.84434466,127.1869941
710,1,종합터미널,종합터미널,36.8190148,127.1565574
710,2,방죽안오거리,방 죽 안 5,36.817435,127.1511525
710,3,복자여자중고등학교,복자여중고,36.815121,127.1499161
710,4,삼도상가, 삼도상가,36.8120581,127.1488145
710,5,천안역 동부광장,천안역동부,36.8083388,127.147642
710,6,온양나드리,온양나드리,36.8033957,127.1459932
710,7,남산중앙시장,중앙시장,36.8005047,127.1487406
710,8,영성로,영  성  로,36.7984753,127.1508314
710,9,남부오거리,남부오거리,36.7982139,127.1517372
710,10,우성VIP 아파트,우성 VIP A,36.79842431,127.1562394
710,11,삼룡교,삼  룡  교,36.7978992,127.1591872
710,12,구성초등학교, 구성초교,36.79359597,127.1603211
710,13,구성신성아파트,구성신성 A,36.79132701,127.1624531
710,14,천안박물관,천안박물관,36.7863024,127.1648077
710,15,원삼거리, 원삼거리,36.7836693,127.1650659
710,16,천안여자고등학교, 천안여고,36.77950419,127.1650802
710,17,선문대(천안),선문대학교,36.7730421,127.1646065
710,18,도리티고개,도리티고개,36.7658773,127.1669045
710,19,삼성1리,삼 성 1 리,36.75852631,127.1714057
710,20,삼성리,삼  성  리,36.75471466,127.1709824
710,21,도장리,도  장  리,36.7456878,127.1704363
710,22,영흥산업, 영흥산업,36.73805241,127.1719707
710,23,소사리,소  사  리,36.7352547,127.1716401
710,24,대곡리,대곡,36.7298387,127.1667903
710,25,소정육교(맹골),소정육교 맹골,36.7271343,127.1619987
710,26,대곡1리,대곡1리,36.72607,127.15941
710,27,소정리,소  정  리,36.72478,127.15813
710,28,소정면사무소,소정면사무소,36.72173,127.15762
710,29,소정리역,소정리역,36.71895,127.1566
710,30,소정면우체국,소정우체국,36.71422,127.15471
710,31,소정리입구,소정리입구,36.712119,127.153895
710,32,KCC앞,K C C 앞,36.70867,127.15287
710,33,운당1리,운당1리,36.6979306,127.1525606
710,34,행정리,행  정  리,36.6884513,127.1571478
710,35,대평1리(대평원),대 평 1 리,36.6847733,127.1571809
710,36,대평2리,대 평 2 리,36.6741606,127.1456338
710,37,대평2리,대 평 2 리,36.6705171,127.1391318
710,38,원덕리,원  덕  리,36.6648182,127.1431533
710,39,원덕1리(원터),원 덕 1 리,36.6604633,127.1398949
710,40,원덕2리,원 덕 2 리,36.6569049,127.1347926
710,41,자연누리성,자연누리성,36.66124294,127.1242241
710,42,원덕2리,원 덕 2 리,36.66168799,127.1213324
710,43,추모공원, 추모공원 ,36.66382258,127.1174876
710,44,원덕2리(밤나무골),원 덕 2 리,36.6607495,127.1245697
710,45,인풍,인      풍,36.63974053,127.1210018
710,46,사현2리,사 현 2 리,36.6334671,127.1235332
710,47,사현리,사  현  리,36.62605779,127.1238767
710,48,광정,광      정,36.6121017,127.1218446
710,1,광정,광      정,36.6121017,127.1218446
710,2,사현1리,사 현 1 리,36.62623966,127.1243507
710,3,사현2리,사현2리,36.6335632,127.1237095
710,4,인풍,인      풍,36.6398517,127.1213376
710,5,원덕2리(밤나무골),원 덕 2 리,36.66093631,127.1247924
710,6,자연누리성,자연누리성,36.66124294,127.1242241
710,7,원덕2리,원 덕 2 리,36.66168799,127.1213324
710,8,추모공원, 추모공원 ,36.66382258,127.1174876
710,9,원덕2리,원 덕 2 리,36.65670669,127.1350334
710,10,원덕1리(원터),원 덕 1 리,36.66029244,127.1400983
710,11,원덕리,원  덕  리,36.66481465,127.1434141
710,12,대평2리,대 평 2 리,36.6704363,127.1393457
710,13,대평2리,대 평 2 리,36.67414575,127.1459549
710,14,대평1리(대평원),대 평 1 리,36.68497297,127.1574557
710,15,행정리,행  정  리,36.6884835,127.1573738
710,16,운당1리,운당1리,36.69865,127.15205
710,17,운당2리,운당2리,36.7058276,127.1497944
710,18,KCC앞,K C C 앞,36.70852,127.15296
710,19,소정리입구,소정리입구,36.71191,127.15392
710,20,소정면우체국,소정우체국,36.7143,127.15486
710,21,소정리역,소정리역,36.71885,127.1567
710,22,소정면사무소,소정면사무소,36.72149,127.15766
710,23,소정리,소정리,36.7245035,127.1581344
710,24,대곡4리,대곡4리,36.72556,127.15982
710,25,소정육교(맹골),소정육교 맹,36.72646,127.16173
710,26,소정육교,소정육교,36.72718,127.16312
710,27,대곡리,대곡리,36.7296,127.16673
710,28,소사리,소  사  리,36.73509962,127.1718074
710,29,영흥산업, 영흥산업,36.73791311,127.1721981
710,30,도장리,도  장  리,36.74560129,127.1707074
710,31,삼성리,삼  성  리,36.7536301,127.1712413
710,32,삼성1리,삼 성 1 리,36.75842465,127.1716491
710,33,도리티고개,도리티고개,36.76701127,127.1664474
710,34,선문대(천안),선문대학교,36.77294961,127.1649224
710,35,천안여자고등학교, 천안여고,36.78047633,127.1654907
710,36,원삼거리,원삼거리,36.7828663,127.1655307
710,37,천안박물관,천안박물관,36.7869163,127.1650874
710,38,구성신성아파트,구성신성A,36.7916663,127.1625191
710,39,구성초등학교, 구성초교,36.79378962,127.1603407
710,40,구성동중앙신협,구성동신협,36.7968004,127.1595407
710,41,우성VIP 아파트,우성 VIP A,36.7985872,127.1564345
710,42,남산축협,남산축협,36.7992067,127.1521362
710,43,천안중앙시장,중앙시장,36.8004711,127.1492519
710,44,온양나드리,온양나드리,36.8032386,127.1462215
710,45,천안역 동부광장,천안역동부,36.8081632,127.1477157
710,46,삼도상가, 삼도상가,36.8116185,127.148923
710,47,복자여자중고등학교,복자여중고,36.815312,127.1502101
710,48,방죽안오거리,방 죽 안 5,36.8175776,127.1514936
710,49,종합터미널,종합터미널,36.8187607,127.1556582
777,1,음봉중학교,음봉중학교,36.84148,127.0637
777,2,포스코아파트2.3차,포스코아파트2.3차,36.84052,127.06715
777,3,포스코아파트정문,포스코아파트정문,36.83846,127.07307
777,4,덕지리,덕  지  리,36.8372,127.07605
777,5,제자교회,제자교회,36.83489,127.08415
777,6,초원아파트,초원아파트,36.83711,127.08532
777,7,음봉축협신동지점, 음봉축협,36.82871,127.09232
777,8,동산(구루미마을),동      산,36.826,127.08927
777,9,한라아파트,한라아파트,36.82108,127.08585
777,10,동덕초등학교,동덕초교,36.81951,127.08389
777,11,탕정농공단지입구,탕정농공,36.81775,127.08189
777,12,호산2리,호산2리,36.81475,127.08083
777,13,홍익아파트,홍익아파트,36.80924,127.07863
777,14,호산3리,호산3리,36.80799,127.08227
777,15,매곡3리,매곡3리,36.80037,127.08552
777,16,매곡리신풍터,매곡리신풍터,36.79764,127.08566
777,17,선문대입구,선문대입구,36.79769,127.08212
777,18,매곡리신풍터,매곡리신풍터,36.79746,127.08564
777,19,열병합발전소,열병합발전소,36.79744,127.091
777,20,서당골,서  당  골,36.80050133,127.1006674
777,21,갤러리아백화점, 갤러리아 ,36.80115796,127.1042941
777,22,와이시티,와이시티,36.79789,127.10601
777,23,패션2광장,패션2광장,36.79334,127.10718
777,24,아산역,아  산  역,36.79158,127.10288
777,25,LH아산사업본부,LH아산사업본부,36.78997,127.10223
777,26,특수교육원,특수교육원,36.78642,127.10001
777,27,설화중학교,설화중학교,36.78643,127.09576
777,28,설화고등학교,설화고등학교,36.78733,127.0916
777,29,용연마을4거리,용연마을4거리,36.79022,127.09
777,30,탕정역건너,탕정역건너,36.78894,127.08484
777,31,여술삼거리,여술삼거리,36.78623,127.06657
777,32,갈산2리 여술,갈산2리 여술,36.79246,127.06783
777,33,트라펠리스,트라펠리스,36.79888,127.0605
777,34,공공하수처리시설,공공하수처리시설,36.79448,127.05507
777,35,구령2리,구령2리,36.77883,127.0519
777,36,배방역,배방역,36.77737,127.05358
777,37,장호빌딩, 장호빌딩 ,36.77426,127.05532
777,38,오류동 아산세무서,오  류  동,36.77456,127.0569
777,39,모산,모  산,36.77515,127.06046
777,40,배방환승정류장,배방환승정류장,36.77569,127.0639
777,1,배방환승정류장,배방환승정류장,36.77535,127.06422
777,2,모산,모산,36.77529,127.06086
777,3,오류동 아산세무서,오  류  동,36.77478,127.05744
777,4,장호빌딩, 장호빌딩 ,36.77433,127.05488
777,5,농협중앙지점,농협중앙지점,36.77523,127.0545
777,6,배방역,배방역,36.77744,127.0538
777,7,구령2리,구령2리,36.779,127.05206
777,8,공공하수처리시설,공공하수처리시설,36.79445,127.05536
777,9,탕정면사무소,탕정면사무소,36.79868,127.06042
777,10,갈산2리 여술,갈산2리 여술,36.79248,127.06767
777,11,여술삼거리,여술삼거리,36.78601,127.06637
777,12,탕정역,탕정역,36.78881,127.08522
777,13,배방읍 신도시민원행정센터,배방읍 신도시민원행정센터,36.78999,127.0901
777,14,설화고등학교,설화고등학교,36.78727,127.09151
777,15,설화중학교,설화중학교,36.7863,127.09587
777,16,특수교육원,특수교육원,36.78621,127.10005
777,17,LH아산사업본부,LH아산사업본부,36.78984,127.10271
777,18,아산역,아  산  역,36.7915,127.1036
777,19,패션2광장,패션2광장,36.79388,127.1074
777,20,와이시티,와이시티,36.79819,127.10632
777,21,갤러리아백화점, 갤러리아 ,36.80146069,127.1045475
777,22,불당이통서당골,서 당 골,36.80077027,127.1005612
777,23,열병합발전소,열병합발전소,36.79768,127.09085
777,24,매곡리신풍터,매곡리신풍터,36.79764,127.08566
777,25,선문대입구,선문대입구,36.79753,127.08212
777,26,매곡리신풍터,매곡리신풍터,36.79746,127.08564
777,27,매곡3리,매곡3리,36.80038,127.08563
777,28,호산3리,호 산 3 리,36.80799,127.08242
777,29,홍익아파트,홍익아파트,36.80945,127.07836
777,30,호산2리,호 산 2 리,36.81472,127.081
777,31,탕정농공단지입구,농공단지,36.81769,127.082
777,32,동덕초등학교,동덕초교,36.81956,127.08425
777,33,한라아파트,한라아파트,36.82167,127.08642
777,34,동산리,동  산  리,36.82621,127.08956
777,35,제자교회,제자교회,36.83489,127.08415
777,36,초원아파트,초원아파트,36.83711,127.08532
777,37,초원아파트입구,초원아파트,36.83446,127.08312
777,38,덕지리,덕  지  리,36.8374,127.07618
777,39,포스코아파트정문,포스코아파트정문,36.83866,127.07318
777,40,포스코아파트2.3차,포스코아파트2.3차,36.84022,127.06844
777,41,음봉중학교,음봉중학교,36.84166,127.06377
5,1,두정역입구,두정역입구,36.83139281,127.1518104
5,2,신부우방아파트,신부우방 A,36.82342295,127.1526374
5,3,종합터미널,종합터미널,36.8187797,127.155972
5,4,천안중학교,천안중학교,36.81130964,127.1582674
5,5,원성극동아파트,원성극동 A,36.80285964,127.1589074
5,6,삼룡교,삼  룡  교,36.7978992,127.1591872
5,7,청수극동1차아파트, 극동1차A,36.79156779,127.1559119
5,8,청룡동행정복지센터,청룡동센터,36.78585295,127.1569741
5,9,한양수자인,한양수자인,36.78340964,127.1523757
5,10,초원마을그린타운아파트,초원마을,36.786258,127.127808
5,11,쌍용동일하이빌,쌍용동일 A,36.7848047,127.1132825
5,12,패션2광장,패션2광장,36.79388,127.1074
5,13,불당상업지구입구,불당지구,36.81182,127.10861
5,14,시청앞사거리,시청앞사거리,36.815946,127.110025
5,15,벽산블루밍아파트,벽산블루밍,36.82620132,127.1133074
5,16,산업단지공단입구, 산업단지 ,36.83347627,127.1164057
5,17,이마트 서북점,이  마  트,36.8391046,127.1220241
5,18,천안시장애인종합복지관,종합복지관,36.83902158,127.1325808
5,19,두정대우3차아파트,대우 3차 A,36.83879962,127.1437691
5,20,두정역,두  정  역,36.83266484,127.1479053
5,21,두정역입구,두정역입구,36.83254631,127.1519224
5,1,두정역 푸르지오, 푸르지오 ,36.83357217,127.151547
5,2,두정역,두  정  역,36.83304298,127.1473341
5,3,한기대(두정),한국기술대,36.8391863,127.1421457
5,4,성성레이크타운2차푸르지오아파트,성성레이크타운2차푸르지오아파트,36.83930627,127.1333941
5,5,브라운스톤아파트,브라운스톤,36.83003128,127.1142824
5,6,시청앞사거리,시청사거리,36.816561,127.1097996
5,7,서울대정병원,대정병원,36.81176,127.10828
5,8,패션2광장,패션2광장,36.79334,127.10718
5,9,쌍용동일하이빌,동일하이빌,36.78462,127.11376
5,10,한라동백2차아파트,한라동백,36.785912,127.12939
5,11,한양수자인,한양수자인,36.78349127,127.1525491
5,12,청룡동행정복지센터,청룡동센터,36.78572841,127.1570883
5,13,청수LG SK아파트,청수LG SK,36.7913365,127.1560667
5,14,구성동중앙신협,구성동신협,36.7968004,127.1595407
5,15,원성극동아파트,원성극동 A,36.80257013,127.1590813
5,16,중앙고등학교,중앙고교,36.81141632,127.1584774
5,17,고속터미널,고속터미널,36.81895798,127.1545407
5,18,동아태조아파트,동아태조 A,36.8227316,127.1526522
5,19,두정역입구,두정역입구,36.83254631,127.1519224
19,1,천안아산역,천안아산역,36.79431,127.10368
19,2,펜타포트, 펜타포트 ,36.79744461,127.1008124
19,3,서당골,서  당  골,36.80050133,127.1006674
19,4,갤러리아백화점, 갤러리아 ,36.80115796,127.1042941
19,5,충남북부상공회의소,상공회의소,36.79809,127.10926
19,6,천안교육지원청,천안교육청,36.8004692,127.1115156
19,7,불당한성아파트,불당한성A,36.80281799,127.1124357
19,8,불당동행정복지센터,불당동,36.8050216,127.113191
19,9,불당동일하이빌3단지,불당동일 A,36.80681537,127.1115229
19,10,불당동일하이빌2단지,불당동일 A,36.80850635,127.1109052
19,11,트윈팰리스,트윈팰리스,36.811045,127.1117324
19,12,천안시청 서북구보건소, 천안시청,36.81392798,127.1158357
19,13,백석11단지,백석11단지,36.82016488,127.117591
19,14,백석아이파크2차아파트,아이파크2,36.82446579,127.1187901
19,15,백석이수아파트입구,백석이수 A,36.8301348,127.1163021
19,16,한국더첼,한국더첼,36.8307286,127.1139845
19,17,화이트스톤,화이트스톤,36.83114632,127.1088757
19,18,한들문화센터,한들문화,36.82960135,127.104156
19,19,STS,S   T   S,36.83101965,127.1091264
19,20,외국인 기업 전용단지,외국인단지,36.83621536,127.1142437
19,21,동아제약, 동아제약 ,36.84062484,127.1126176
19,22,코스트코,코스트코,36.8428592,127.1072613
19,23,효성아파트이편한아파트,효성이편한,36.8453166,127.1091824
19,24,삼성SDI후문,삼성SDI,36.8464525,127.11474
19,25,사라리,사  라  리,36.84720962,127.1185224
19,26,차암공단입구, 차암공단,36.84914999,127.1175989
19,27,롯데푸드,롯데푸드,36.84984025,127.1179884
19,28,한국하니웰,한국하니웰,36.85033124,127.120884
19,29,천안산업단지관리공단, 산업단지 ,36.85490794,127.1207574
19,30,직산대림아파트,직산대림 A,36.85982794,127.1207674
19,1,직산대림아파트,직산대림 A,36.85989538,127.1205641
19,2,천안산업단지관리공단, 산업단지,36.85493571,127.1206056
19,3,롯데푸드,롯데푸드,36.84999461,127.1181141
19,4,차암공단입구, 차암공단,36.84950957,127.1173981
19,5,사라리,사  라  리,36.84713795,127.1183713
19,6,성성교차로,성성교차로,36.8453024,127.1195384
19,7,삼성SDI후문,삼성SDI,36.8467594,127.114873
19,8,효성아파트이편한아파트,효성이편한,36.8454958,127.1088675
19,9,코스트코, 코스트코 ,36.8431558,127.1069906
19,10,삼성SDI,삼성 SDI,36.84150404,127.1092274
19,11,동아제약, 동아제약 ,36.84046576,127.1125003
19,12,외국인 기업 전용단지,외국인단지,36.83612435,127.1139574
19,13,화이트스톤,화이트스톤,36.83114632,127.1088757
19,14,한들문화센터,한들문화,36.82960135,127.104156
19,15,STS,S   T   S,36.83101965,127.1091264
19,16,제네시스, 제네시스 ,36.83104252,127.1124419
19,17,백석이수아파트입구, 백석이수 ,36.82992526,127.1162015
19,18,백석아이파크2차아파트,아이파크2,36.8244789,127.1185045
19,19,백석11단지,백석11단지,36.82000963,127.1173524
19,20,천안시청 서북구보건소, 천안시청,36.81408213,127.115595
19,21,트윈팰리스,트윈팰리스,36.81151469,127.1115843
19,22,불당아이파크,불당I파크 ,36.80875251,127.1107399
19,23,불당대동아파트108동앞,불당대동 A,36.80647705,127.1120144
19,24,불당대동다숲,대동다숲 A,36.80505757,127.1129314
19,25,불당한성아파트,불당한성A,36.80304803,127.1122592
19,26,천안교육지원청,천안교육청,36.80054965,127.1111791
19,27,충남북부상공회의소,상공회의소,36.7978613,127.1086324
19,28,와이시티,와이시티,36.79819,127.10632
19,29,갤러리아백화점, 갤러리아 ,36.80146069,127.1045475
19,30,불당시티프라디움3차,프라디움,36.7971352,127.100265
19,31,불당중흥2차프라디움,중흥2차,36.7955275,127.1006813
19,32,천안아산역,천안아산역,36.793545,127.1038693
24,1,신부동회차지,신부동회차,36.82985469,127.1621212
24,2,단국대 삼거리,단대삼거리,36.830499,127.1639488
24,3,옹골부락,옹골부락,36.82866701,127.1660049
24,4,천안톨게이트,천안 TG,36.82824318,127.1677016
24,5,안서동보아파트,안서동보 A,36.8309613,127.1779991
24,6,호서대(천안),호서대학교,36.83039064,127.1797282
24,7,안서코아루,안서코아루,36.8299428,127.1850257
24,8,"부경파크빌,안서e편한세상,성불사",부경이편한,36.8294586,127.1894348
24,9,안서코아루,안서코아루,36.8301411,127.1850417
24,10,호서대(천안),호서대학교,36.83058632,127.1797441
24,11,안서동보아파트,안서동보 A,36.83106297,127.1774274
24,12,천안톨게이트, 천안 TG,36.82835666,127.1676106
24,13,도솔광장,도솔광장,36.8224033,127.162808
24,14,대림한숲아파트,대림한숲 A,36.81993963,127.1597741
24,15,종합터미널,종합터미널,36.8190148,127.1565574
24,16,방죽안오거리,방 죽 안 5,36.817435,127.1511525
24,17,복자여자중고등학교,복자여중고,36.815121,127.1499161
24,18,삼도상가, 삼도상가,36.8120581,127.1488145
24,19,천안역 동부광장,천안역동부,36.8083388,127.147642
24,20,온양나드리,온양나드리,36.8033957,127.1459932
24,21,남산중앙시장,중앙시장,36.8005047,127.1487406
24,22,영성로,영  성  로,36.7984753,127.1508314
24,23,남부오거리,남부오거리,36.7982139,127.1517372
24,24,우성VIP 아파트,우성 VIP A,36.79842431,127.1562394
24,25,삼룡교,삼  룡  교,36.7978992,127.1591872
24,26,구성초등학교, 구성초교,36.79359597,127.1603211
24,27,구성신성아파트,구성신성 A,36.79132701,127.1624531
24,28,천안동중학교, 천안동중,36.78786298,127.1656891
24,29,천안삼거리공원,삼거리공원,36.7842081,127.1691222
24,30,삼룡동새마을회관,새마을회관,36.7804555,127.1735565
24,31,"천안의료원,고려신학대학원",천안의료원,36.776238,127.1777027
24,32,천안삼거리장례식장,천안삼거리,36.77312583,127.1793202
24,33,응원리,응  원  리,36.7683294,127.1851267
24,34,세광엔리치빌,세광엔리치,36.76802961,127.1892341
24,35,동우아파트,동우아파트,36.77097152,127.1950936
24,1,동우아파트,동우아파트,36.7708424,127.1950309
24,2,세광엔리치빌, 엔리치빌,36.76821627,127.1890557
24,3,응원리,응  원  리,36.76846963,127.1852108
24,4,천안삼거리장례식장,천안삼거리,36.77375795,127.1793741
24,5,"천안의료원,고려신학대학원",천안의료원,36.7759539,127.1783259
24,6,삼룡동새마을회관,새마을회관,36.78093295,127.1733924
24,7,천안삼거리공원,삼거리공원,36.78402463,127.1697274
24,8,천안동중학교, 천안동중,36.78778703,127.1660115
24,9,구성신성아파트,구성신성A,36.7916663,127.1625191
24,10,구성초등학교, 구성초교,36.79378962,127.1603407
24,11,구성동중앙신협,구성동신협,36.7968004,127.1595407
24,12,우성VIP 아파트,우성 VIP A,36.7985872,127.1564345
24,13,남산축협,남산축협,36.7992067,127.1521362
24,14,천안중앙시장,중앙시장,36.8004711,127.1492519
24,15,온양나드리,온양나드리,36.8032386,127.1462215
24,16,천안역 동부광장,천안역동부,36.8081632,127.1477157
24,17,삼도상가, 삼도상가,36.8116185,127.148923
24,18,복자여자중고등학교,복자여중고,36.815312,127.1502101
24,19,방죽안오거리,방 죽 안 5,36.8175776,127.1514936
24,20,종합터미널,종합터미널,36.8187607,127.1556582
24,21,대림한숲아파트,대림한숲 A,36.8193751,127.1595809
24,22,천안톨게이트,천안 TG,36.82824318,127.1677016
24,23,안서동보아파트,안서동보 A,36.8309613,127.1779991
24,24,호서대(천안),호서대학교,36.83039064,127.1797282
24,25,안서코아루,안서코아루,36.8299428,127.1850257
24,26,"부경파크빌,안서e편한세상,성불사",부경이편한,36.8294588,127.1895245
51,1,종합터미널,종합터미널,36.8190148,127.1565574
51,2,방죽안오거리,방 죽 안 5,36.817435,127.1511525
51,3,복자여자중고등학교,복자여중고,36.815121,127.1499161
51,4,삼도상가, 삼도상가,36.8120581,127.1488145
51,5,천안역,천  안  역,36.80882941,127.1490063
51,6,동남구보건소,동남구보건,36.80731404,127.1515393
51,7,천안제일고등학교,천안제일고,36.80617754,127.1542699
51,8,버들로,버  들  로,36.80621995,127.1564693
51,9,원동교,원  동  교,36.80628878,127.1605723
51,10,대전충남양계축협, 양계축협 ,36.80826754,127.1618191
51,11,동말,동      말,36.81106469,127.1678929
51,12,향교앞,향  교  앞,36.81201201,127.1716457
51,13,장애인체육관,체  육  관,36.81331956,127.1695914
51,14,천안향교,천안향교,36.8156797,127.172334
51,15,천성중학교,천성중학교,36.81284262,127.173369
51,16,아랫말,아  랫  말,36.81353816,127.1758999
51,17,분텃골,분  텃  골,36.81487376,127.1787623
51,18,양담말,양  담  말,36.81533939,127.1818339
51,19,응담말,응  담  말,36.81659795,127.1841857
51,20,중앙소방학교 후문, 중앙소방 ,36.81806794,127.1854407
51,21,리각미술관.태조산청소년수련관,리각미술관,36.8204409,127.1872467
51,1,리각미술관.태조산청소년수련관,리각미술관,36.82054091,127.1871164
51,2,중앙소방학교 후문, 중앙소방 ,36.81857538,127.1857192
51,3,응담말,응  담  말,36.816795,127.1840503
51,4,양담말,양  담  말,36.81552132,127.1819107
51,5,분텃골,분  텃  골,36.81502464,127.1788041
51,6,아랫말,아  랫  말,36.81361963,127.1755174
51,7,천성중학교,천성중학교,36.8129387,127.1731389
51,8,장애인체육관,체  육  관,36.81331956,127.1695914
51,9,천안향교,천안향교,36.8156797,127.172334
51,10,향교앞,향  교  앞,36.81214341,127.171564
51,11,동말,동      말,36.81122794,127.1679624
51,12,대전충남양계축협, 양계축협 ,36.8081761,127.1614679
51,13,원동교,원  동  교,36.8064396,127.1600908
51,14,천안제일고등학교,천안제일고,36.80639796,127.1552241
51,15,동남구보건소,동남보건소,36.8083113,127.1505244
51,16,천안역,천  안  역,36.80911797,127.1488424
51,17,삼도상가, 삼도상가,36.8116185,127.148923
51,18,복자여자중고등학교,복자여중고,36.815312,127.1502101
51,19,방죽안오거리,방 죽 안 5,36.8175776,127.1514936
51,20,종합터미널,종합터미널,36.81880476,127.1562637
63,1,남부고가교,남부고가교,36.7829315,127.1432912
63,2,용곡세광아파트,용곡세광 A,36.78076965,127.1418377
63,3,용곡세광엔리치타워,세광엔리치,36.7789829,127.1405415
63,4,새샘중학교,새샘중학교,36.775884,127.1391877
63,5,현대까치아파트,현대까치 A,36.77266961,127.1378077
63,6,신방한라비발디후문,비발디후문,36.77018288,127.1342919
63,7,신방한라비발디아파트,한라비발디,36.77087186,127.1323612
63,8,"신방도서관, 푸르지오아파트",신방도서관,36.77314295,127.1319424
63,9,새마을금고,새마을금고,36.77485963,127.1339607
63,10,한성필하우스,한  성  필,36.77643962,127.1349274
63,11,하나리움,하나리움,36.7782243,127.131841
63,12,신흥방산마을,방산마을,36.7790242,127.1284561
63,13,신방체육관,신방체육관,36.78528195,127.1288483
63,14,신방한라동백아파트,한라동백 A,36.78760879,127.1289211
63,15,현대향촌아파트,현대향촌 A,36.78997758,127.1291328
63,16,성지새말아파트,성지새말 A,36.7921028,127.129131
63,17,쌍용동 이마트,이마트쌍용,36.79631298,127.1290624
63,18,쌍용패션거리, 패션거리,36.80244569,127.1319201
63,19,천안여상입구, 여상입구,36.80492959,127.1323538
63,20,천안고등학교, 천안고교,36.80708686,127.1355617
63,21,봉명1교,봉명1교,36.80669911,127.142002
63,22,동남구보건소,동남보건소,36.8083113,127.1505244
63,23,천안역,천  안  역,36.80911797,127.1488424
63,24,천안역 동부광장,천안역동부,36.8083388,127.147642
63,25,온양나드리,온양나드리,36.8033957,127.1459932
63,26,남산중앙시장,중앙시장,36.8005047,127.1487406
63,27,영성로,영  성  로,36.7984753,127.1508314
63,28,남부오거리,남부오거리,36.7982139,127.1517372
63,29,우성VIP 아파트,우성 VIP A,36.79842431,127.1562394
63,30,충무로사거리, 충무로 4,36.79862631,127.1606308
63,31,홈플러스, 홈플러스 ,36.79874294,127.1634124
63,32,신성미소지움아파트,미소지움 A,36.79226235,127.1645478
63,33,천안동중학교, 천안동중,36.78786298,127.1656891
63,34,천안삼거리공원,삼거리공원,36.7842081,127.1691222
63,35,삼룡동새마을회관,새마을회관,36.7804555,127.1735565
63,36,"천안의료원,고려신학대학원",천안의료원,36.7759539,127.1783259
63,1,"천안의료원,고려신학대학원",천안의료원,36.776238,127.1777027
63,2,삼룡동새마을회관,새마을회관,36.78093295,127.1733924
63,3,천안삼거리공원,삼거리공원,36.78402463,127.1697274
63,4,천안동중학교, 천안동중,36.78778703,127.1660115
63,5,신성미소지움아파트,미소지움 A,36.79281465,127.1648808
63,6,홈플러스, 홈플러스 ,36.79891657,127.1637981
63,7,충무로사거리,충무사거리,36.7987691,127.1601093
63,8,우성VIP 아파트,우성 VIP A,36.7985872,127.1564345
63,9,남산축협,남산축협,36.7992067,127.1521362
63,10,천안중앙시장,중앙시장,36.8004711,127.1492519
63,11,온양나드리,온양나드리,36.8032386,127.1462215
63,12,천안역 동부광장,천안역동부,36.8081632,127.1477157
63,13,천안역,천  안  역,36.80882941,127.1490063
63,14,동남구보건소,동남구보건,36.80731404,127.1515393
63,15,봉명1교,봉명1교,36.8068688,127.1419862
63,16,천고사거리,천고사거리,36.8070723,127.1392308
63,17,천안고등학교, 천안고교,36.80727629,127.1353874
63,18,천안여상입구, 여상입구,36.80469794,127.1321408
63,19,쌍용패션거리, 패션거리,36.80204793,127.1317057
63,20,쌍용동 이마트,이마트쌍용,36.79631584,127.1287697
63,21,성지새말아파트,성지새말 A,36.79230628,127.1288841
63,22,현대 향촌아파트,현대향촌 A,36.7897316,127.1286902
63,23,신방초원아파트후문,신방초원 A,36.7879761,127.1285709
